timestamp,timestamp_sample,device_id,x,y,z,temperature,error_count,is_external
8476757540,8476756594,396809,0.09166666,0.09318182,0.16136363,nan,0,1
8476779192,8476778246,396809,0.09469697,0.09166666,0.15984848,nan,0,1
8477760984,8477760037,396809,0.09469697,0.093939394,0.15454546,nan,0,1
8478764061,8478763115,396809,0.09166666,0.09015151,0.16666666,nan,0,1
8479745743,8479744797,396809,0.08863636,0.090909086,0.15833333,nan,0,1
8480749234,8480748288,396809,0.089393936,0.09166666,0.15454546,nan,0,1
8481752152,8481751206,396809,0.09318182,0.092424236,0.1651515,nan,0,1
8482755699,8482754753,396809,0.08863636,0.09015151,0.15833333,nan,0,1
8483758597,8483757651,396809,0.090909086,0.095454544,0.1560606,nan,0,1
8484761803,8484760857,396809,0.090909086,0.090909086,0.16363636,nan,0,1
8485743794,8485742837,396809,0.09015151,0.09166666,0.15833333,nan,0,1
8486747007,8486746061,396809,0.09318182,0.09015151,0.16666666,nan,0,1
8487749904,8487748959,396809,0.089393936,0.090909086,0.16363636,nan,0,1
8488753519,8488752573,396809,0.09166666,0.093939394,0.17045455,nan,0,1
8489756206,8489755260,396809,0.09015151,0.087878786,0.1621212,nan,0,1
8490759978,8490759031,396809,0.093939394,0.090909086,0.16136363,nan,0,1
8491762905,8491761959,396809,0.090909086,0.092424236,0.15681818,nan,0,1
8492744829,8492743865,396809,0.092424236,0.090909086,0.16742423,nan,0,1
8493747922,8493746973,396809,0.089393936,0.096969694,0.1560606,nan,0,1
8494751224,8494750267,396809,0.09469697,0.087878786,0.15681818,nan,0,1
8495754048,8495753092,396809,0.089393936,0.095454544,0.16666666,nan,0,1
8496757724,8496756779,396809,0.090909086,0.095454544,0.1560606,nan,0,1
8497760551,8497759606,396809,0.090909086,0.09015151,0.15984848,nan,0,1
8498742536,8498741591,396809,0.093939394,0.09166666,0.16666666,nan,0,1
8499745767,8499744822,396809,0.089393936,0.092424236,0.15833333,nan,0,1
8500748649,8500747703,396809,0.090909086,0.092424236,0.16893938,nan,0,1
8501752199,8501751253,396809,0.093939394,0.09015151,0.1651515,nan,0,1
8502755024,8502754078,396809,0.09318182,0.09166666,0.1560606,nan,0,1
8503758231,8503757286,396809,0.090909086,0.090909086,0.15303029,nan,0,1
8504761429,8504760478,396809,0.093939394,0.09166666,0.15833333,nan,0,1
8505743430,8505742484,396809,0.090909086,0.090909086,0.1621212,nan,0,1
8506746176,8506745230,396809,0.09318182,0.08863636,0.16742423,nan,0,1
8507749918,8507748972,396809,0.09469697,0.09318182,0.15303029,nan,0,1
8508752687,8508751742,396809,0.093939394,0.09015151,0.15227272,nan,0,1
8509756375,8509755429,396809,0.09166666,0.089393936,0.15833333,nan,0,1
8510759143,8510758197,396809,0.09015151,0.09166666,0.16363636,nan,0,1
8511762450,8511761504,396809,0.09015151,0.092424236,0.15833333,nan,0,1
8512744369,8512743423,396809,0.08863636,0.09015151,0.1651515,nan,0,1
8513747657,8513746711,396809,0.09166666,0.09015151,0.16666666,nan,0,1
8514750467,8514749521,396809,0.092424236,0.09318182,0.15454546,nan,0,1
8515754129,8515753159,396809,0.092424236,0.09015151,0.15227272,nan,0,1
8516756961,8516756015,396809,0.09015151,0.089393936,0.15227272,nan,0,1
8517760613,8517759668,396809,0.089393936,0.090909086,0.15454546,nan,0,1
8518763342,8518762396,396809,0.086363636,0.09015151,0.1560606,nan,0,1
8519745519,8519744573,396809,0.09015151,0.092424236,0.16893938,nan,0,1
8520748657,8520747712,396809,0.090909086,0.09469697,0.15833333,nan,0,1
8521751710,8521750761,396809,0.089393936,0.092424236,0.1560606,nan,0,1
8522754571,8522753626,396809,0.09166666,0.092424236,0.16363636,nan,0,1
8523758183,8523757237,396809,0.087878786,0.090909086,0.16893938,nan,0,1
8524761067,8524760121,396809,0.090909086,0.090909086,0.15681818,nan,0,1
8525764686,8525763741,396809,0.090909086,0.09166666,0.16136363,nan,0,1
8526746280,8526745334,396809,0.09469697,0.09166666,0.16363636,nan,0,1
8527749513,8527748567,396809,0.090909086,0.09318182,0.15984848,nan,0,1
8528752720,8528751768,396809,0.09015151,0.090909086,0.1560606,nan,0,1
8529755989,8529755043,396809,0.09318182,0.090909086,0.15833333,nan,0,1
8530758820,8530757874,396809,0.09166666,0.09166666,0.15681818,nan,0,1
8531762434,8531761488,396809,0.092424236,0.089393936,0.16742423,nan,0,1
8532765151,8532764206,396809,0.093939394,0.09015151,0.1560606,nan,0,1
8533747115,8533746169,396809,0.09166666,0.093939394,0.16893938,nan,0,1
8534750339,8534749393,396809,0.09015151,0.090909086,0.1621212,nan,0,1
8535753670,8535752725,396809,0.089393936,0.09166666,0.1621212,nan,0,1
8536756821,8536755874,396809,0.092424236,0.09166666,0.15681818,nan,0,1
8537760205,8537759224,396809,0.092424236,0.089393936,0.15454546,nan,0,1
8538762803,8538761857,396809,0.09166666,0.092424236,0.16136363,nan,0,1
8539745269,8539744314,396809,0.08863636,0.092424236,0.16136363,nan,0,1
8540747982,8540747036,396809,0.09318182,0.09166666,0.15833333,nan,0,1
8541751294,8541750348,396809,0.08863636,0.090909086,0.16363636,nan,0,1
8542754629,8542753683,396809,0.09469697,0.09015151,0.15984848,nan,0,1
8543757842,8543756896,396809,0.093939394,0.09166666,0.16666666,nan,0,1
8544761089,8544760144,396809,0.089393936,0.09015151,0.16363636,nan,0,1
8545764107,8545763161,396809,0.093939394,0.09318182,0.15833333,nan,0,1
8546745774,8546744828,396809,0.09015151,0.09015151,0.15984848,nan,0,1
8547749357,8547748411,396809,0.09469697,0.090909086,0.15984848,nan,0,1
8548752157,8548751211,396809,0.09166666,0.092424236,0.16136363,nan,0,1
8549755387,8549754441,396809,0.089393936,0.09015151,0.16666666,nan,0,1
8550758583,8550757637,396809,0.090909086,0.09166666,0.1651515,nan,0,1
8551761909,8551760899,396809,0.09166666,0.09166666,0.15227272,nan,0,1
8552743434,8552742489,396809,0.09318182,0.09166666,0.17272727,nan,0,1
8553746927,8553745982,396809,0.092424236,0.089393936,0.16136363,nan,0,1
8554749807,8554748861,396809,0.09469697,0.090909086,0.15984848,nan,0,1
8555753340,8555752394,396809,0.092424236,0.093939394,0.16136363,nan,0,1
8556756323,8556755377,396809,0.093939394,0.09166666,0.16666666,nan,0,1
8557759469,8557758524,396809,0.09318182,0.09166666,0.1621212,nan,0,1
8558762725,8558761779,396809,0.09166666,0.09166666,0.14696969,nan,0,1
8559744589,8559743632,396809,0.090909086,0.09166666,0.1560606,nan,0,1
8560747337,8560746391,396809,0.09166666,0.09166666,0.15681818,nan,0,1
8561750994,8561750048,396809,0.087878786,0.09318182,0.15454546,nan,0,1
8562753803,8562752857,396809,0.089393936,0.09318182,0.16136363,nan,0,1
8563757425,8563756480,396809,0.09015151,0.09469697,0.15833333,nan,0,1
8564760281,8564759335,396809,0.092424236,0.086363636,0.15984848,nan,0,1
8565763481,8565762535,396809,0.092424236,0.09318182,0.16363636,nan,0,1
8566745431,8566744486,396809,0.09166666,0.093939394,0.16136363,nan,0,1
8567748657,8567747711,396809,0.09469697,0.087878786,0.16136363,nan,0,1
8568751405,8568750459,396809,0.09318182,0.09166666,0.1560606,nan,0,1
8569755072,8569754126,396809,0.093939394,0.093939394,0.15833333,nan,0,1
8570757915,8570756969,396809,0.09015151,0.09015151,0.15681818,nan,0,1
8571761540,8571760594,396809,0.09166666,0.092424236,0.1621212,nan,0,1
8572743055,8572742110,396809,0.09166666,0.090909086,0.15984848,nan,0,1
8573745907,8573744961,396809,0.09469697,0.092424236,0.16363636,nan,0,1
8574749420,8574748474,396809,0.090909086,0.09015151,0.15833333,nan,0,1
8575752094,8575751149,396809,0.092424236,0.090909086,0.15984848,nan,0,1
8576755548,8576754587,396809,0.08863636,0.09015151,0.15984848,nan,0,1
8577758741,8577757795,396809,0.09015151,0.09166666,0.15454546,nan,0,1
8578761970,8578761015,396809,0.09166666,0.09015151,0.15454546,nan,0,1
8579743442,8579742496,396809,0.093939394,0.09015151,0.15984848,nan,0,1
8580747216,8580746260,396809,0.08863636,0.092424236,0.1651515,nan,0,1
8581750046,8581749100,396809,0.092424236,0.08863636,0.16666666,nan,0,1
8582753549,8582752603,396809,0.08712121,0.092424236,0.1621212,nan,0,1
8583756190,8583755244,396809,0.09015151,0.09166666,0.15833333,nan,0,1
8584759504,8584758558,396809,0.090909086,0.09015151,0.16136363,nan,0,1
8585762574,8585761628,396809,0.092424236,0.093939394,0.16666666,nan,0,1
8586744677,8586743732,396809,0.087878786,0.089393936,0.16363636,nan,0,1
8587747331,8587746386,396809,0.09166666,0.090909086,0.15984848,nan,0,1
8588750931,8588749983,396809,0.08863636,0.089393936,0.14924242,nan,0,1
8589753855,8589752909,396809,0.09015151,0.090909086,0.15833333,nan,0,1
8590757365,8590756420,396809,0.09318182,0.093939394,0.16363636,nan,0,1
8591760280,8591759334,396809,0.09015151,0.09469697,0.15303029,nan,0,1
8592742149,8592741204,396809,0.090909086,0.09015151,0.14545454,nan,0,1
8593745444,8593744498,396809,0.089393936,0.09166666,0.16666666,nan,0,1
8594748565,8594747619,396809,0.09015151,0.09015151,0.16363636,nan,0,1
8595751422,8595750467,396809,0.09015151,0.092424236,0.15833333,nan,0,1
8596755087,8596754142,396809,0.093939394,0.09015151,0.15227272,nan,0,1
8597757957,8597757011,396809,0.09015151,0.092424236,0.15227272,nan,0,1
8598761602,8598760657,396809,0.090909086,0.089393936,0.1621212,nan,0,1
8599743134,8599742188,396809,0.08712121,0.093939394,0.1621212,nan,0,1
8600746343,8600745397,396809,0.092424236,0.092424236,0.16363636,nan,0,1
8601749541,8601748596,396809,0.09015151,0.09318182,0.15227272,nan,0,1
8602752694,8602751748,396809,0.092424236,0.09015151,0.15303029,nan,0,1
8603755465,8603754519,396809,0.092424236,0.092424236,0.15833333,nan,0,1
8604759084,8604758138,396809,0.092424236,0.092424236,0.16893938,nan,0,1
8605761945,8605760959,396809,0.090909086,0.089393936,0.15454546,nan,0,1
8606743903,8606742957,396809,0.08863636,0.090909086,0.16742423,nan,0,1
8607747142,8607746197,396809,0.092424236,0.087878786,0.15454546,nan,0,1
8608750227,8608749282,396809,0.087878786,0.09318182,0.16893938,nan,0,1
8609753435,8609752490,396809,0.09318182,0.090909086,0.15303029,nan,0,1
8610756672,8610755727,396809,0.092424236,0.090909086,0.15681818,nan,0,1
8611759381,8611758436,396809,0.09166666,0.089393936,0.1651515,nan,0,1
8612763070,8612762124,396809,0.092424236,0.09166666,0.15984848,nan,0,1
8613744500,8613743554,396809,0.090909086,0.092424236,0.15681818,nan,0,1
8614747849,8614746904,396809,0.089393936,0.092424236,0.1621212,nan,0,1
8615750999,8615750054,396809,0.089393936,0.09015151,0.15303029,nan,0,1
8616754416,8616753471,396809,0.089393936,0.09318182,0.1621212,nan,0,1
8617757675,8617756729,396809,0.08863636,0.09166666,0.16893938,nan,0,1
8618760639,8618759694,396809,0.09469697,0.092424236,0.16666666,nan,0,1
8619763595,8619762649,396809,0.093939394,0.090909086,0.17045455,nan,0,1
8620745768,8620744823,396809,0.090909086,0.09166666,0.17045455,nan,0,1
8621748655,8621747709,396809,0.09015151,0.090909086,0.1621212,nan,0,1
8622751962,8622751016,396809,0.09015151,0.090909086,0.16363636,nan,0,1
8623755075,8623754129,396809,0.09166666,0.09318182,0.16136363,nan,0,1
8624758313,8624757367,396809,0.093939394,0.089393936,0.15833333,nan,0,1
8625761477,8625760531,396809,0.08863636,0.09015151,0.16136363,nan,0,1
8626764657,8626763712,396809,0.092424236,0.092424236,0.15681818,nan,0,1
8627746295,8627745349,396809,0.090909086,0.08863636,0.14545454,nan,0,1
8628749805,8628748860,396809,0.09166666,0.090909086,0.15984848,nan,0,1
8629752581,8629751632,396809,0.090909086,0.089393936,0.1621212,nan,0,1
8630755671,8630754725,396809,0.09166666,0.09166666,0.1651515,nan,0,1
8631758952,8631758007,396809,0.090909086,0.090909086,0.15075757,nan,0,1
8632762133,8632761187,396809,0.09318182,0.09166666,0.17045455,nan,0,1
8633765392,8633764447,396809,0.09166666,0.08863636,0.1651515,nan,0,1
8634747206,8634746260,396809,0.08863636,0.09318182,0.15833333,nan,0,1
8635749994,8635749048,396809,0.09166666,0.09015151,0.15833333,nan,0,1
8636753620,8636752675,396809,0.090909086,0.09469697,0.1651515,nan,0,1
8637756486,8637755541,396809,0.090909086,0.09318182,0.15984848,nan,0,1
8638759556,8638758610,396809,0.09166666,0.09166666,0.15833333,nan,0,1
8639762804,8639761858,396809,0.09318182,0.09015151,0.1651515,nan,0,1
8640744790,8640743844,396809,0.087878786,0.08712121,0.16742423,nan,0,1
8641747795,8641746849,396809,0.09166666,0.09015151,0.1621212,nan,0,1
8642751106,8642750160,396809,0.093939394,0.089393936,0.16666666,nan,0,1
8643753782,8643752836,396809,0.09166666,0.09015151,0.16742423,nan,0,1
8644757475,8644756529,396809,0.09166666,0.092424236,0.16363636,nan,0,1
8645760356,8645759376,396809,0.09166666,0.09166666,0.1621212,nan,0,1
8646763458,8646762512,396809,0.09015151,0.09166666,0.16742423,nan,0,1
8647745370,8647744414,396809,0.08863636,0.09318182,0.1651515,nan,0,1
8648748184,8648747229,396809,0.092424236,0.09318182,0.1621212,nan,0,1
8649751359,8649750414,396809,0.09166666,0.09166666,0.15833333,nan,0,1
8650754583,8650753637,396809,0.09015151,0.093939394,0.15984848,nan,0,1
8651757773,8651756827,396809,0.090909086,0.092424236,0.15984848,nan,0,1
8652760920,8652759973,396809,0.09166666,0.095454544,0.16893938,nan,0,1
8653764066,8653763120,396809,0.09015151,0.090909086,0.1621212,nan,0,1
8654745636,8654744691,396809,0.087878786,0.090909086,0.15984848,nan,0,1
8655749180,8655748234,396809,0.090909086,0.090909086,0.15454546,nan,0,1
8656751920,8656750972,396809,0.09318182,0.090909086,0.15833333,nan,0,1
8657755114,8657754169,396809,0.092424236,0.09318182,0.16136363,nan,0,1
8658758235,8658757289,396809,0.089393936,0.09015151,0.16136363,nan,0,1
8659761572,8659760593,396809,0.092424236,0.092424236,0.1560606,nan,0,1
8660742957,8660742012,396809,0.093939394,0.089393936,0.16136363,nan,0,1
8661746557,8661745611,396809,0.092424236,0.09015151,0.15833333,nan,0,1
8662749357,8662748412,396809,0.09318182,0.09166666,0.15681818,nan,0,1
8663752968,8663752021,396809,0.09166666,0.09015151,0.15454546,nan,0,1
8664755730,8664754784,396809,0.090909086,0.090909086,0.1621212,nan,0,1
8665758949,8665758003,396809,0.09166666,0.09166666,0.15075757,nan,0,1
8666762142,8666761196,396809,0.09318182,0.090909086,0.16136363,nan,0,1
8667744068,8667743122,396809,0.09015151,0.089393936,0.15303029,nan,0,1
8668746790,8668745837,396809,0.09166666,0.090909086,0.15303029,nan,0,1
8669750237,8669749291,396809,0.08863636,0.092424236,0.17045455,nan,0,1
8670753294,8670752349,396809,0.093939394,0.092424236,0.15681818,nan,0,1
8671756815,8671755869,396809,0.09015151,0.09318182,0.1621212,nan,0,1
8672759558,8672758612,396809,0.09318182,0.090909086,0.15984848,nan,0,1
8673762978,8673762030,396809,0.08863636,0.092424236,0.15681818,nan,0,1
8674744787,8674743840,396809,0.09015151,0.092424236,0.16136363,nan,0,1
8675747753,8675746807,396809,0.08712121,0.092424236,0.1621212,nan,0,1
8676750550,8676749604,396809,0.09621212,0.090909086,0.1621212,nan,0,1
8677754158,8677753212,396809,0.092424236,0.09318182,0.15681818,nan,0,1
8678756837,8678755876,396809,0.09015151,0.092424236,0.15984848,nan,0,1
8679760441,8679759491,396809,0.090909086,0.092424236,0.17045455,nan,0,1
8680763203,8680762258,396809,0.093939394,0.090909086,0.15984848,nan,0,1
8681745269,8681744324,396809,0.09015151,0.093939394,0.15681818,nan,0,1
8682748386,8682747440,396809,0.089393936,0.09015151,0.14924242,nan,0,1
8683751504,8683750558,396809,0.087878786,0.09318182,0.15833333,nan,0,1
8684754199,8684753253,396809,0.09318182,0.092424236,0.15833333,nan,0,1
8685757861,8685756915,396809,0.089393936,0.09166666,0.1621212,nan,0,1
8686760722,8686759776,396809,0.089393936,0.090909086,0.15833333,nan,0,1
8687742536,8687741590,396809,0.090909086,0.08863636,0.15984848,nan,0,1
8688745887,8688744941,396809,0.09469697,0.092424236,0.16363636,nan,0,1
8689748949,8689748004,396809,0.089393936,0.09166666,0.16363636,nan,0,1
8690752102,8690751157,396809,0.089393936,0.090909086,0.1651515,nan,0,1
8691755195,8691754250,396809,0.090909086,0.092424236,0.15984848,nan,0,1
8692758039,8692757093,396809,0.089393936,0.09469697,0.1651515,nan,0,1
8693761602,8693760624,396809,0.089393936,0.09015151,0.15681818,nan,0,1
8694743160,8694742214,396809,0.089393936,0.09166666,0.15454546,nan,0,1
8695746530,8695745584,396809,0.092424236,0.092424236,0.1621212,nan,0,1
8696749824,8696748878,396809,0.093939394,0.087878786,0.1651515,nan,0,1
8697753041,8697752096,396809,0.090909086,0.092424236,0.17272727,nan,0,1
8698756299,8698755353,396809,0.092424236,0.092424236,0.1651515,nan,0,1
8699759405,8699758459,396809,0.09318182,0.092424236,0.1651515,nan,0,1
8700762157,8700761211,396809,0.090909086,0.092424236,0.1651515,nan,0,1
8701744386,8701743441,396809,0.08712121,0.092424236,0.15681818,nan,0,1
8702747257,8702746312,396809,0.092424236,0.08712121,0.17045455,nan,0,1
8703750424,8703749478,396809,0.093939394,0.08863636,0.1560606,nan,0,1
8704753648,8704752703,396809,0.089393936,0.09469697,0.14772727,nan,0,1
8705756906,8705755947,396809,0.09015151,0.09015151,0.16136363,nan,0,1
8706760055,8706759047,396809,0.09318182,0.090909086,0.17045455,nan,0,1
8707763146,8707762200,396809,0.09166666,0.092424236,0.16136363,nan,0,1
8708744675,8708743729,396809,0.090909086,0.09318182,0.16363636,nan,0,1
8709748263,8709747318,396809,0.089393936,0.089393936,0.16136363,nan,0,1
8710751176,8710750230,396809,0.09469697,0.09166666,0.16666666,nan,0,1
8711754559,8711753613,396809,0.09015151,0.089393936,0.15984848,nan,0,1
8712757928,8712756982,396809,0.09015151,0.093939394,0.15681818,nan,0,1
8713760873,8713759927,396809,0.087878786,0.089393936,0.1560606,nan,0,1
8714764271,8714763326,396809,0.09166666,0.09166666,0.17121212,nan,0,1
8715746053,8715745107,396809,0.09166666,0.09166666,0.16136363,nan,0,1
8716748961,8716748015,396809,0.092424236,0.09166666,0.15833333,nan,0,1
8717752338,8717751383,396809,0.089393936,0.090909086,0.16136363,nan,0,1
8718755183,8718754237,396809,0.093939394,0.089393936,0.16666666,nan,0,1
8719758312,8719757366,396809,0.089393936,0.090909086,0.15454546,nan,0,1
8720761432,8720760486,396809,0.092424236,0.092424236,0.16136363,nan,0,1
8721764223,8721763277,396809,0.09318182,0.09166666,0.1621212,nan,0,1
8722746133,8722745187,396809,0.09166666,0.092424236,0.16363636,nan,0,1
8723749360,8723748415,396809,0.093939394,0.09318182,0.15681818,nan,0,1
8724752464,8724751518,396809,0.09015151,0.09318182,0.1621212,nan,0,1
8725755642,8725754679,396809,0.090909086,0.09166666,0.16136363,nan,0,1
8726758996,8726758042,396809,0.092424236,0.09166666,0.15984848,nan,0,1
8727761712,8727760766,396809,0.08863636,0.092424236,0.15984848,nan,0,1
8728765081,8728764136,396809,0.093939394,0.09015151,0.16893938,nan,0,1
8729746637,8729745692,396809,0.09166666,0.09015151,0.16666666,nan,0,1
8730749787,8730748841,396809,0.095454544,0.09318182,0.16893938,nan,0,1
8731753158,8731752213,396809,0.08863636,0.090909086,0.15984848,nan,0,1
8732756126,8732755180,396809,0.092424236,0.09015151,0.16136363,nan,0,1
8733759371,8733758425,396809,0.093939394,0.093939394,0.15227272,nan,0,1
8734762484,8734761538,396809,0.089393936,0.089393936,0.15984848,nan,0,1
8735765293,8735764347,396809,0.09166666,0.09015151,0.15984848,nan,0,1
8736747537,8736746592,396809,0.09166666,0.09318182,0.15454546,nan,0,1
8737750315,8737749369,396809,0.087878786,0.09166666,0.1560606,nan,0,1
8738753500,8738752555,396809,0.092424236,0.087878786,0.15075757,nan,0,1
8739756675,8739755713,396809,0.087878786,0.09318182,0.16742423,nan,0,1
8740759719,8740758773,396809,0.093939394,0.09015151,0.16893938,nan,0,1
8741762944,8741761998,396809,0.089393936,0.09318182,0.16893938,nan,0,1
8742744850,8742743904,396809,0.09318182,0.09166666,0.16742423,nan,0,1
8743747661,8743746710,396809,0.090909086,0.09166666,0.15303029,nan,0,1
8744751241,8744750295,396809,0.090909086,0.089393936,0.17045455,nan,0,1
8745754011,8745753065,396809,0.08863636,0.09166666,0.1621212,nan,0,1
8746757082,8746756137,396809,0.092424236,0.089393936,0.1621212,nan,0,1
8747760327,8747759381,396809,0.090909086,0.09166666,0.15303029,nan,0,1
8748763536,8748762590,396809,0.08863636,0.09318182,0.1621212,nan,0,1
8749744949,8749744003,396809,0.09318182,0.092424236,0.16136363,nan,0,1
8750748419,8750747468,396809,0.087878786,0.09469697,0.15681818,nan,0,1
8751751253,8751750307,396809,0.08863636,0.09318182,0.16666666,nan,0,1
8752754837,8752753891,396809,0.08863636,0.09166666,0.1651515,nan,0,1
8753757695,8753756749,396809,0.092424236,0.09015151,0.1651515,nan,0,1
8754760814,8754759869,396809,0.09318182,0.09318182,0.15454546,nan,0,1
8755763959,8755763013,396809,0.09166666,0.090909086,0.15984848,nan,0,1
8756745882,8756744936,396809,0.089393936,0.08863636,0.14924242,nan,0,1
8757748657,8757747711,396809,0.09469697,0.090909086,0.1651515,nan,0,1
8758752227,8758751281,396809,0.089393936,0.09318182,0.17045455,nan,0,1
8759754891,8759753945,396809,0.095454544,0.090909086,0.16742423,nan,0,1
8760758568,8760757623,396809,0.090909086,0.09166666,0.15227272,nan,0,1
8761761385,8761760424,396809,0.09166666,0.089393936,0.15833333,nan,0,1
8762764578,8762763632,396809,0.09015151,0.09015151,0.16742423,nan,0,1
8763746655,8763745710,396809,0.09318182,0.090909086,0.15833333,nan,0,1
8764749896,8764748950,396809,0.089393936,0.093939394,0.1560606,nan,0,1
8765752535,8765751590,396809,0.09015151,0.09015151,0.15303029,nan,0,1
8766756232,8766755287,396809,0.089393936,0.09166666,0.15681818,nan,0,1
8767759109,8767758163,396809,0.09318182,0.090909086,0.15833333,nan,0,1
8768762569,8768761623,396809,0.09015151,0.09166666,0.15454546,nan,0,1
8769744285,8769743339,396809,0.089393936,0.092424236,0.1651515,nan,0,1
8770747478,8770746532,396809,0.09015151,0.090909086,0.1621212,nan,0,1
8771750750,8771749804,396809,0.089393936,0.09318182,0.16666666,nan,0,1
8772753823,8772752878,396809,0.090909086,0.09015151,0.1651515,nan,0,1
8773756726,8773755781,396809,0.09015151,0.093939394,0.16136363,nan,0,1
8774760258,8774759313,396809,0.09621212,0.09015151,0.15984848,nan,0,1
8775763171,8775762196,396809,0.087878786,0.090909086,0.15833333,nan,0,1
8776745131,8776744185,396809,0.089393936,0.092424236,0.15075757,nan,0,1
8777748280,8777747305,396809,0.090909086,0.089393936,0.15984848,nan,0,1
8778751483,8778750538,396809,0.09166666,0.090909086,0.1621212,nan,0,1
8779754812,8779753861,396809,0.092424236,0.09166666,0.16666666,nan,0,1
8780758091,8780757146,396809,0.089393936,0.089393936,0.14166667,nan,0,1
8781760696,8781759750,396809,0.089393936,0.09318182,0.15833333,nan,0,1
8782743180,8782742222,396809,0.090909086,0.09166666,0.16893938,nan,0,1
8783745940,8783744995,396809,0.09318182,0.09318182,0.16742423,nan,0,1
8784749094,8784748148,396809,0.090909086,0.09166666,0.14696969,nan,0,1
8785752478,8785751532,396809,0.09469697,0.09015151,0.16136363,nan,0,1
8786755656,8786754710,396809,0.09015151,0.09166666,0.16893938,nan,0,1
8787758811,8787757860,396809,0.092424236,0.090909086,0.15984848,nan,0,1
8788761990,8788761040,396809,0.09318182,0.090909086,0.1621212,nan,0,1
8789743517,8789742564,396809,0.092424236,0.092424236,0.16363636,nan,0,1
8790747150,8790746204,396809,0.09015151,0.09166666,0.1621212,nan,0,1
8791749901,8791748955,396809,0.092424236,0.092424236,0.15984848,nan,0,1
8792753143,8792752196,396809,0.09166666,0.092424236,0.1560606,nan,0,1
8793756443,8793755498,396809,0.09166666,0.089393936,0.1621212,nan,0,1
8794759176,8794758230,396809,0.090909086,0.092424236,0.1621212,nan,0,1
8795741492,8795740517,396809,0.092424236,0.090909086,0.1621212,nan,0,1
8796744485,8796743540,396809,0.089393936,0.092424236,0.1560606,nan,0,1
8797747524,8797746578,396809,0.09166666,0.09166666,0.15833333,nan,0,1
8798750709,8798749764,396809,0.08863636,0.09318182,0.16893938,nan,0,1
8799753871,8799752925,396809,0.089393936,0.090909086,0.1621212,nan,0,1
8800756613,8800755667,396809,0.090909086,0.090909086,0.1651515,nan,0,1
8801760198,8801759253,396809,0.09318182,0.090909086,0.15303029,nan,0,1
8802741570,8802740624,396809,0.093939394,0.09469697,0.16363636,nan,0,1
8803744912,8803743959,396809,0.09015151,0.090909086,0.1651515,nan,0,1
8804748009,8804747064,396809,0.090909086,0.092424236,0.1651515,nan,0,1
8805751251,8805750306,396809,0.09166666,0.090909086,0.17272727,nan,0,1
8806754493,8806753548,396809,0.09015151,0.093939394,0.15984848,nan,0,1
8807757771,8807756826,396809,0.09015151,0.089393936,0.16666666,nan,0,1
8808760546,8808759600,396809,0.092424236,0.092424236,0.15681818,nan,0,1
8809742835,8809741889,396809,0.09015151,0.092424236,0.15681818,nan,0,1
8810745595,8810744649,396809,0.087878786,0.093939394,0.15454546,nan,0,1
8811748817,8811747871,396809,0.092424236,0.092424236,0.1560606,nan,0,1
8812752153,8812751194,396809,0.09015151,0.09166666,0.16136363,nan,0,1
8813755298,8813754353,396809,0.08863636,0.095454544,0.15833333,nan,0,1
8814758653,8814757707,396809,0.09015151,0.090909086,0.15303029,nan,0,1
8815761913,8815760967,396809,0.092424236,0.09166666,0.1621212,nan,0,1
8816743436,8816742478,396809,0.09318182,0.09318182,0.1621212,nan,0,1
8817746789,8817745843,396809,0.093939394,0.09166666,0.16136363,nan,0,1
8818749600,8818748654,396809,0.09015151,0.09166666,0.1621212,nan,0,1
8819752840,8819751891,396809,0.09469697,0.090909086,0.15833333,nan,0,1
8820756029,8820755064,396809,0.08863636,0.092424236,0.16363636,nan,0,1
8821759262,8821758316,396809,0.08863636,0.09318182,0.16136363,nan,0,1
8822762550,8822761605,396809,0.092424236,0.09015151,0.15833333,nan,0,1
8823744441,8823743495,396809,0.090909086,0.093939394,0.17121212,nan,0,1
8824747141,8824746195,396809,0.090909086,0.090909086,0.1621212,nan,0,1
8825750861,8825749916,396809,0.092424236,0.090909086,0.16136363,nan,0,1
8826753656,8826752711,396809,0.093939394,0.089393936,0.1560606,nan,0,1
8827756780,8827755834,396809,0.089393936,0.090909086,0.17045455,nan,0,1
8828760164,8828759218,396809,0.09166666,0.090909086,0.16363636,nan,0,1
8829763201,8829762255,396809,0.09166666,0.090909086,0.15833333,nan,0,1
8830744822,8830743876,396809,0.09318182,0.09469697,0.17045455,nan,0,1
8831748425,8831747478,396809,0.090909086,0.093939394,0.16742423,nan,0,1
8832751163,8832750168,396809,0.08863636,0.09166666,0.15833333,nan,0,1
8833754807,8833753854,396809,0.09318182,0.09015151,0.15454546,nan,0,1
8834757535,8834756590,396809,0.090909086,0.09166666,0.15984848,nan,0,1
8835760649,8835759704,396809,0.09166666,0.09166666,0.15454546,nan,0,1
8836763961,8836762998,396809,0.090909086,0.089393936,0.15681818,nan,0,1
8837745605,8837744659,396809,0.09166666,0.090909086,0.16363636,nan,0,1
8838748406,8838747461,396809,0.093939394,0.09166666,0.15681818,nan,0,1
8839751928,8839750982,396809,0.089393936,0.090909086,0.17045455,nan,0,1
8840754806,8840753860,396809,0.09166666,0.090909086,0.15681818,nan,0,1
8841758303,8841757357,396809,0.087878786,0.08863636,0.1651515,nan,0,1
8842761278,8842760332,396809,0.08863636,0.093939394,0.17121212,nan,0,1
8843764420,8843763474,396809,0.087878786,0.09318182,0.15984848,nan,0,1
8844746337,8844745392,396809,0.09166666,0.09318182,0.16666666,nan,0,1
8845749578,8845748632,396809,0.090909086,0.090909086,0.16136363,nan,0,1
8846752286,8846751340,396809,0.090909086,0.09166666,0.16742423,nan,0,1
8847755842,8847754883,396809,0.092424236,0.09166666,0.15681818,nan,0,1
8848758598,8848757652,396809,0.08863636,0.090909086,0.15454546,nan,0,1
8849762148,8849761202,396809,0.09166666,0.09166666,0.15984848,nan,0,1
8850765013,8850764067,396809,0.087878786,0.092424236,0.1560606,nan,0,1
8851746804,8851745858,396809,0.08863636,0.092424236,0.15984848,nan,0,1
8852750006,8852749061,396809,0.092424236,0.09318182,0.15833333,nan,0,1
8853753311,8853752365,396809,0.089393936,0.09166666,0.16742423,nan,0,1
8854756157,8854755211,396809,0.093939394,0.089393936,0.1651515,nan,0,1
8855759819,8855758873,396809,0.090909086,0.09015151,0.16893938,nan,0,1
8856762352,8856761406,396809,0.09015151,0.08863636,0.16666666,nan,0,1
8857744376,8857743431,396809,0.092424236,0.089393936,0.15454546,nan,0,1
8858747519,8858746573,396809,0.090909086,0.089393936,0.15681818,nan,0,1
8859750731,8859749784,396809,0.090909086,0.092424236,0.14924242,nan,0,1
8860753873,8860752920,396809,0.09318182,0.090909086,0.1560606,nan,0,1
8861757238,8861756265,396809,0.093939394,0.090909086,0.15681818,nan,0,1
8862760118,8862759173,396809,0.092424236,0.089393936,0.1560606,nan,0,1
8863763662,8863762716,396809,0.09318182,0.090909086,0.1560606,nan,0,1
8864745061,8864744116,396809,0.089393936,0.09166666,0.15303029,nan,0,1
8865748314,8865747370,396809,0.090909086,0.09166666,0.15227272,nan,0,1
8866751457,8866750512,396809,0.092424236,0.089393936,0.15303029,nan,0,1
8867754200,8867753254,396809,0.090909086,0.08863636,0.16893938,nan,0,1
8868757951,8868757005,396809,0.090909086,0.09166666,0.15454546,nan,0,1
8869760695,8869759749,396809,0.087878786,0.089393936,0.16136363,nan,0,1
8870764008,8870763063,396809,0.09015151,0.092424236,0.15833333,nan,0,1
8871745794,8871744848,396809,0.090909086,0.089393936,0.17045455,nan,0,1
8872748992,8872748043,396809,0.090909086,0.089393936,0.14772727,nan,0,1
8873751713,8873750768,396809,0.09166666,0.09015151,0.15227272,nan,0,1
8874755389,8874754444,396809,0.092424236,0.09015151,0.1560606,nan,0,1
8875758037,8875757091,396809,0.090909086,0.090909086,0.16136363,nan,0,1
8876761775,8876760830,396809,0.090909086,0.09015151,0.16363636,nan,0,1
8877743385,8877742440,396809,0.090909086,0.092424236,0.1621212,nan,0,1
8878746588,8878745604,396809,0.09318182,0.09318182,0.16893938,nan,0,1
8879749667,8879748721,396809,0.090909086,0.092424236,0.15833333,nan,0,1
8880752922,8880751977,396809,0.087878786,0.09318182,0.15984848,nan,0,1
8881755685,8881754740,396809,0.090909086,0.093939394,0.15227272,nan,0,1
8882759422,8882758476,396809,0.092424236,0.089393936,0.15454546,nan,0,1
8883761949,8883761003,396809,0.09015151,0.089393936,0.15681818,nan,0,1
8884743859,8884742914,396809,0.092424236,0.08863636,0.1621212,nan,0,1
8885747328,8885746382,396809,0.09318182,0.09318182,0.1621212,nan,0,1
8886750364,8886749419,396809,0.095454544,0.09015151,0.1560606,nan,0,1
8887753674,8887752728,396809,0.093939394,0.09166666,0.15303029,nan,0,1
8888756714,8888755763,396809,0.093939394,0.089393936,0.15984848,nan,0,1
8889759463,8889758517,396809,0.09469697,0.09166666,0.15833333,nan,0,1
8890763046,8890762100,396809,0.090909086,0.092424236,0.16742423,nan,0,1
8891744515,8891743569,396809,0.08863636,0.09469697,0.16893938,nan,0,1
8892747756,8892746810,396809,0.08863636,0.090909086,0.1621212,nan,0,1
8893750826,8893749880,396809,0.092424236,0.089393936,0.1621212,nan,0,1
8894753952,8894753006,396809,0.090909086,0.09318182,0.1621212,nan,0,1
8895757320,8895756375,396809,0.09166666,0.09166666,0.1560606,nan,0,1
8896760454,8896759508,396809,0.09318182,0.09015151,0.16742423,nan,0,1
8897741966,8897741020,396809,0.092424236,0.08863636,0.1560606,nan,0,1
8898745599,8898744653,396809,0.092424236,0.089393936,0.1621212,nan,0,1
8899748229,8899747284,396809,0.089393936,0.09318182,0.16742423,nan,0,1
8900751492,8900750532,396809,0.092424236,0.09166666,0.1621212,nan,0,1
8901754642,8901753696,396809,0.090909086,0.092424236,0.1621212,nan,0,1
8902758081,8902757135,396809,0.089393936,0.093939394,0.15454546,nan,0,1
8903761174,8903760221,396809,0.093939394,0.09166666,0.1621212,nan,0,1
8904743193,8904742248,396809,0.089393936,0.092424236,0.1560606,nan,0,1
8905745967,8905745006,396809,0.09318182,0.089393936,0.15984848,nan,0,1
8906749592,8906748639,396809,0.09015151,0.092424236,0.15833333,nan,0,1
8907752317,8907751371,396809,0.09318182,0.090909086,0.17121212,nan,0,1
8908755584,8908754639,396809,0.08863636,0.092424236,0.15454546,nan,0,1
8909758844,8909757898,396809,0.092424236,0.09166666,0.15681818,nan,0,1
8910761967,8910761022,396809,0.09166666,0.09015151,0.15454546,nan,0,1
8911743464,8911742504,396809,0.09469697,0.09166666,0.15833333,nan,0,1
8912747050,8912746087,396809,0.09166666,0.09015151,0.15227272,nan,0,1
8913749756,8913748810,396809,0.092424236,0.090909086,0.15303029,nan,0,1
8914753411,8914752465,396809,0.09318182,0.089393936,0.1621212,nan,0,1
8915756137,8915755192,396809,0.089393936,0.090909086,0.1560606,nan,0,1
8916759140,8916758194,396809,0.090909086,0.089393936,0.17045455,nan,0,1
8917762414,8917761469,396809,0.09318182,0.09015151,0.16666666,nan,0,1
8918744403,8918743457,396809,0.09166666,0.092424236,0.16136363,nan,0,1
8919747295,8919746349,396809,0.089393936,0.09469697,0.16666666,nan,0,1
8920750870,8920749906,396809,0.09015151,0.09318182,0.17045455,nan,0,1
8921753719,8921752772,396809,0.092424236,0.09166666,0.15454546,nan,0,1
8922757248,8922756303,396809,0.09166666,0.09318182,0.15075757,nan,0,1
8923760092,8923759146,396809,0.08863636,0.08863636,0.16363636,nan,0,1
8924763343,8924762397,396809,0.090909086,0.090909086,0.1651515,nan,0,1
8925745333,8925744387,396809,0.09621212,0.092424236,0.15303029,nan,0,1
8926748407,8926747461,396809,0.090909086,0.092424236,0.15833333,nan,0,1
8927751107,8927750149,396809,0.090909086,0.089393936,0.16893938,nan,0,1
8928754666,8928753720,396809,0.092424236,0.090909086,0.1560606,nan,0,1
8929757605,8929756659,396809,0.087878786,0.090909086,0.16666666,nan,0,1
8930761252,8930760307,396809,0.089393936,0.09318182,0.15303029,nan,0,1
8931763885,8931762939,396809,0.090909086,0.090909086,0.15984848,nan,0,1
8932745865,8932744919,396809,0.092424236,0.092424236,0.14924242,nan,0,1
8933749065,8933748119,396809,0.090909086,0.09318182,0.1560606,nan,0,1
8934752256,8934751310,396809,0.09015151,0.08863636,0.15454546,nan,0,1
8935755033,8935754087,396809,0.09318182,0.09318182,0.16363636,nan,0,1
8936758602,8936757657,396809,0.08863636,0.092424236,0.1621212,nan,0,1
8937761516,8937760523,396809,0.092424236,0.09166666,0.16893938,nan,0,1
8938765109,8938764164,396809,0.089393936,0.09015151,0.15681818,nan,0,1
8939746579,8939745633,396809,0.090909086,0.090909086,0.16363636,nan,0,1
8940749252,8940748299,396809,0.09166666,0.09015151,0.15833333,nan,0,1
8941752934,8941751988,396809,0.09015151,0.09166666,0.1560606,nan,0,1
8942755739,8942754793,396809,0.092424236,0.093939394,0.1621212,nan,0,1
8943759157,8943758211,396809,0.09318182,0.09015151,0.1560606,nan,0,1
8944762259,8944761313,396809,0.09015151,0.090909086,0.15984848,nan,0,1
8945765499,8945764552,396809,0.09015151,0.09015151,0.15681818,nan,0,1
8946746917,8946745971,396809,0.08863636,0.08863636,0.15227272,nan,0,1
8947750635,8947749689,396809,0.090909086,0.09318182,0.15984848,nan,0,1
8948753403,8948752458,396809,0.092424236,0.089393936,0.16742423,nan,0,1
8949757115,8949756170,396809,0.096969694,0.092424236,0.1651515,nan,0,1
8950759945,8950759000,396809,0.09166666,0.09166666,0.1621212,nan,0,1
8951763210,8951762265,396809,0.095454544,0.089393936,0.15984848,nan,0,1
8952745088,8952744143,396809,0.090909086,0.09318182,0.15984848,nan,0,1
8953748348,8953747371,396809,0.089393936,0.09318182,0.16893938,nan,0,1
8954751092,8954750147,396809,0.09166666,0.09015151,0.16136363,nan,0,1
8955754563,8955753617,396809,0.09166666,0.089393936,0.15454546,nan,0,1
8956757663,8956756710,396809,0.090909086,0.09015151,0.15303029,nan,0,1
8957761245,8957760300,396809,0.08863636,0.08863636,0.16742423,nan,0,1
8958763956,8958763011,396809,0.092424236,0.09166666,0.15984848,nan,0,1
8959745821,8959744876,396809,0.093939394,0.092424236,0.16742423,nan,0,1
8960749062,8960748117,396809,0.09166666,0.092424236,0.16666666,nan,0,1
8961752193,8961751248,396809,0.089393936,0.09015151,0.16136363,nan,0,1
8962755180,8962754234,396809,0.09318182,0.092424236,0.16136363,nan,0,1
8963758593,8963757637,396809,0.089393936,0.09166666,0.17121212,nan,0,1
8964761520,8964760574,396809,0.089393936,0.09318182,0.15833333,nan,0,1
8965743399,8965742453,396809,0.090909086,0.09166666,0.16666666,nan,0,1
8966746563,8966745618,396809,0.09166666,0.08863636,0.1621212,nan,0,1
8967749681,8967748735,396809,0.089393936,0.093939394,0.1621212,nan,0,1
8968752906,8968751960,396809,0.090909086,0.092424236,0.16136363,nan,0,1
8969756269,8969755322,396809,0.09621212,0.08863636,0.1651515,nan,0,1
8970759002,8970758056,396809,0.09469697,0.090909086,0.1651515,nan,0,1
8971762546,8971761601,396809,0.086363636,0.09318182,0.16893938,nan,0,1
8972744003,8972743058,396809,0.09015151,0.09318182,0.16363636,nan,0,1
8973747203,8973746256,396809,0.09166666,0.09469697,0.15454546,nan,0,1
8974750262,8974749317,396809,0.090909086,0.087878786,0.15833333,nan,0,1
8975753476,8975752508,396809,0.090909086,0.08712121,0.15227272,nan,0,1
8976756598,8976755653,396809,0.092424236,0.093939394,0.16363636,nan,0,1
8977759925,8977758979,396809,0.090909086,0.092424236,0.16363636,nan,0,1
8978762654,8978761708,396809,0.093939394,0.09015151,0.15303029,nan,0,1
8979745034,8979744081,396809,0.09166666,0.089393936,0.15303029,nan,0,1
8980747877,8980746931,396809,0.090909086,0.090909086,0.1560606,nan,0,1
8981751157,8981750212,396809,0.09318182,0.092424236,0.16666666,nan,0,1
8982754240,8982753294,396809,0.090909086,0.08863636,0.15454546,nan,0,1
8983757500,8983756555,396809,0.08712121,0.09015151,0.15681818,nan,0,1
8984760739,8984759784,396809,0.089393936,0.08863636,0.15984848,nan,0,1
8985742481,8985741535,396809,0.09015151,0.09166666,0.14772727,nan,0,1
8986745449,8986744503,396809,0.090909086,0.092424236,0.15227272,nan,0,1
8987749100,8987748154,396809,0.08863636,0.090909086,0.15075757,nan,0,1
8988751878,8988750932,396809,0.09015151,0.093939394,0.16742423,nan,0,1
8989754918,8989753972,396809,0.089393936,0.089393936,0.1621212,nan,0,1
8990758076,8990757129,396809,0.089393936,0.092424236,0.1651515,nan,0,1
8991761320,8991760374,396809,0.08863636,0.09166666,0.15303029,nan,0,1
8992742896,8992741935,396809,0.093939394,0.092424236,0.1621212,nan,0,1
8993746503,8993745558,396809,0.09166666,0.087878786,0.17272727,nan,0,1
8994749338,8994748392,396809,0.09166666,0.090909086,0.1621212,nan,0,1
8995752844,8995751898,396809,0.08863636,0.09318182,0.15833333,nan,0,1
8996755669,8996754724,396809,0.090909086,0.09166666,0.15984848,nan,0,1
8997758899,8997757954,396809,0.090909086,0.089393936,0.15681818,nan,0,1
8998762203,8998761257,396809,0.09318182,0.09015151,0.16666666,nan,0,1
8999744029,8999743083,396809,0.089393936,0.089393936,0.14924242,nan,0,1
9000746800,9000745855,396809,0.087878786,0.092424236,0.1651515,nan,0,1
9001750513,9001749567,396809,0.090909086,0.09318182,0.15833333,nan,0,1
9002753164,9002752218,396809,0.08863636,0.09166666,0.1560606,nan,0,1
9003756693,9003755748,396809,0.089393936,0.090909086,0.15833333,nan,0,1
9004759672,9004758726,396809,0.09318182,0.092424236,0.15303029,nan,0,1
9005741529,9005740584,396809,0.09469697,0.09015151,0.15984848,nan,0,1
9006744674,9006743729,396809,0.09166666,0.090909086,0.16363636,nan,0,1
9007747905,9007746959,396809,0.09318182,0.092424236,0.16666666,nan,0,1
9008750574,9008749628,396809,0.092424236,0.09166666,0.16893938,nan,0,1
9009754334,9009753389,396809,0.086363636,0.09166666,0.16666666,nan,0,1
9010757142,9010756197,396809,0.092424236,0.089393936,0.15075757,nan,0,1
9011760735,9011759789,396809,0.090909086,0.093939394,0.14924242,nan,0,1
9012742286,9012741340,396809,0.08863636,0.092424236,0.16893938,nan,0,1
9013745259,9013744313,396809,0.087878786,0.090909086,0.1621212,nan,0,1
9014748720,9014747775,396809,0.09166666,0.09015151,0.15227272,nan,0,1
9015751489,9015750544,396809,0.08863636,0.092424236,0.16363636,nan,0,1
9016754655,9016753710,396809,0.09015151,0.092424236,0.1560606,nan,0,1
9017757712,9017756767,396809,0.09166666,0.090909086,0.16742423,nan,0,1
9018760959,9018760013,396809,0.090909086,0.08863636,0.15454546,nan,0,1
9019742493,9019741510,396809,0.09166666,0.09318182,0.1651515,nan,0,1
9020746211,9020745266,396809,0.092424236,0.092424236,0.16666666,nan,0,1
9021748993,9021748048,396809,0.09318182,0.093939394,0.16893938,nan,0,1
9022752529,9022751584,396809,0.090909086,0.09318182,0.1621212,nan,0,1
9023755290,9023754323,396809,0.09166666,0.09166666,0.17045455,nan,0,1
9024758499,9024757553,396809,0.09318182,0.095454544,0.15303029,nan,0,1
9025761791,9025760846,396809,0.092424236,0.090909086,0.15833333,nan,0,1
9026743660,9026742715,396809,0.09469697,0.089393936,0.15984848,nan,0,1
9027746462,9027745517,396809,0.092424236,0.090909086,0.16742423,nan,0,1
9028750055,9028749109,396809,0.093939394,0.092424236,0.17121212,nan,0,1
9029752879,9029751933,396809,0.090909086,0.09015151,0.15303029,nan,0,1
9030756371,9030755425,396809,0.089393936,0.090909086,0.16136363,nan,0,1
9031759238,9031758293,396809,0.09166666,0.092424236,0.15984848,nan,0,1
9032762306,9032761360,396809,0.093939394,0.090909086,0.14696969,nan,0,1
9033744395,9033743444,396809,0.095454544,0.090909086,0.15075757,nan,0,1
9034747692,9034746747,396809,0.093939394,0.09015151,0.15833333,nan,0,1
9035750473,9035749514,396809,0.090909086,0.08863636,0.1651515,nan,0,1
9036753957,9036753011,396809,0.08863636,0.09166666,0.1651515,nan,0,1
9037756820,9037755873,396809,0.09166666,0.09318182,0.1621212,nan,0,1
9038760340,9038759395,396809,0.089393936,0.093939394,0.15984848,nan,0,1
9039763327,9039762382,396809,0.093939394,0.09166666,0.1621212,nan,0,1
9040745334,9040744350,396809,0.092424236,0.093939394,0.15984848,nan,0,1
9041748520,9041747574,396809,0.09318182,0.09166666,0.15303029,nan,0,1
9042751547,9042750601,396809,0.09015151,0.092424236,0.15303029,nan,0,1
9043754243,9043753297,396809,0.08863636,0.092424236,0.1621212,nan,0,1
9044758038,9044757082,396809,0.090909086,0.087878786,0.15075757,nan,0,1
9045760869,9045759923,396809,0.090909086,0.090909086,0.16136363,nan,0,1
9046764385,9046763440,396809,0.09015151,0.09015151,0.14696969,nan,0,1
9047745865,9047744920,396809,0.093939394,0.092424236,0.1651515,nan,0,1
9048749178,9048748232,396809,0.09015151,0.09015151,0.16136363,nan,0,1
9049752435,9049751489,396809,0.09166666,0.089393936,0.14696969,nan,0,1
9050755716,9050754770,396809,0.09318182,0.09015151,0.15227272,nan,0,1
9051758353,9051757407,396809,0.08863636,0.09318182,0.1621212,nan,0,1
9052762198,9052761253,396809,0.092424236,0.09166666,0.1651515,nan,0,1
9053764921,9053763973,396809,0.09166666,0.090909086,0.15833333,nan,0,1
9054746804,9054745858,396809,0.093939394,0.087878786,0.15833333,nan,0,1
9055750111,9055749166,396809,0.09015151,0.093939394,0.17045455,nan,0,1
9056753325,9056752380,396809,0.09015151,0.090909086,0.15833333,nan,0,1
9057756558,9057755601,396809,0.09015151,0.09166666,0.16363636,nan,0,1
9058759549,9058758603,396809,0.092424236,0.092424236,0.16136363,nan,0,1
9059762468,9059761523,396809,0.092424236,0.090909086,0.14545454,nan,0,1
9060744861,9060743908,396809,0.09166666,0.09469697,0.16363636,nan,0,1
9061747696,9061746750,396809,0.093939394,0.09166666,0.17575757,nan,0,1
9062750889,9062749943,396809,0.092424236,0.092424236,0.15984848,nan,0,1
9063754015,9063753069,396809,0.087878786,0.09318182,0.15984848,nan,0,1
9064757155,9064756210,396809,0.089393936,0.09166666,0.15984848,nan,0,1
9065760351,9065759394,396809,0.09015151,0.092424236,0.1560606,nan,0,1
9066763591,9066762645,396809,0.090909086,0.09015151,0.17045455,nan,0,1
9067745203,9067744219,396809,0.09166666,0.090909086,0.15454546,nan,0,1
9068748834,9068747889,396809,0.09166666,0.09166666,0.15454546,nan,0,1
9069751672,9069750727,396809,0.090909086,0.09318182,0.15984848,nan,0,1
9070754862,9070753888,396809,0.089393936,0.09015151,0.15833333,nan,0,1
9071758094,9071757149,396809,0.093939394,0.089393936,0.1621212,nan,0,1
9072761306,9072760358,396809,0.090909086,0.09015151,0.15454546,nan,0,1
9073742944,9073741999,396809,0.08712121,0.092424236,0.15681818,nan,0,1
9074746490,9074745545,396809,0.090909086,0.09318182,0.16742423,nan,0,1
9075749312,9075748366,396809,0.090909086,0.09318182,0.16363636,nan,0,1
9076752937,9076751991,396809,0.089393936,0.092424236,0.15454546,nan,0,1
9077755753,9077754808,396809,0.090909086,0.09166666,0.15984848,nan,0,1
9078758967,9078758022,396809,0.09166666,0.089393936,0.1560606,nan,0,1
9079762207,9079761261,396809,0.09469697,0.089393936,0.16666666,nan,0,1
9080744167,9080743205,396809,0.089393936,0.095454544,0.16666666,nan,0,1
9081746910,9081745964,396809,0.089393936,0.089393936,0.15454546,nan,0,1
9082750504,9082749558,396809,0.09318182,0.093939394,0.1621212,nan,0,1
9083753205,9083752260,396809,0.092424236,0.090909086,0.16742423,nan,0,1
9084757035,9084756080,396809,0.09469697,0.090909086,0.1560606,nan,0,1
9085759750,9085758804,396809,0.089393936,0.09166666,0.15227272,nan,0,1
9086762981,9086762036,396809,0.09166666,0.090909086,0.16363636,nan,0,1
9087744838,9087743892,396809,0.08863636,0.092424236,0.15227272,nan,0,1
9088747476,9088746531,396809,0.092424236,0.09318182,0.15303029,nan,0,1
9089751188,9089750224,396809,0.092424236,0.09318182,0.15681818,nan,0,1
9090754283,9090753337,396809,0.09318182,0.092424236,0.16136363,nan,0,1
9091757294,9091756348,396809,0.092424236,0.09166666,0.15075757,nan,0,1
9092760439,9092759491,396809,0.092424236,0.09015151,0.17272727,nan,0,1
9093742471,9093741526,396809,0.09166666,0.093939394,0.15833333,nan,0,1
9094745293,9094744348,396809,0.092424236,0.09166666,0.16666666,nan,0,1
9095748907,9095747962,396809,0.089393936,0.08863636,0.1560606,nan,0,1
9096751743,9096750798,396809,0.08712121,0.092424236,0.1560606,nan,0,1
9097755058,9097754113,396809,0.09166666,0.09166666,0.16136363,nan,0,1
9098758143,9098757197,396809,0.090909086,0.09166666,0.16136363,nan,0,1
9099761330,9099760385,396809,0.093939394,0.09318182,0.16136363,nan,0,1
9100742729,9100741783,396809,0.09166666,0.092424236,0.1560606,nan,0,1
9101746476,9101745506,396809,0.08863636,0.09469697,0.16363636,nan,0,1
9102749246,9102748300,396809,0.09166666,0.093939394,0.15303029,nan,0,1
9103752837,9103751891,396809,0.09469697,0.08863636,0.15075757,nan,0,1
9104755678,9104754732,396809,0.09015151,0.090909086,0.15833333,nan,0,1
9105758868,9105757923,396809,0.09015151,0.095454544,0.16666666,nan,0,1
9106762056,9106761110,396809,0.092424236,0.09015151,0.15681818,nan,0,1
9107743870,9107742924,396809,0.095454544,0.09166666,0.16363636,nan,0,1
9108746731,9108745785,396809,0.09166666,0.092424236,0.15075757,nan,0,1
9109750260,9109749314,396809,0.093939394,0.090909086,0.16742423,nan,0,1
9110753180,9110752234,396809,0.092424236,0.089393936,0.1621212,nan,0,1
9111756655,9111755699,396809,0.089393936,0.08863636,0.1651515,nan,0,1
9112759475,9112758529,396809,0.093939394,0.090909086,0.15833333,nan,0,1
9113762594,9113761636,396809,0.093939394,0.09318182,0.16136363,nan,0,1
9114744744,9114743799,396809,0.09318182,0.092424236,0.16363636,nan,0,1
9115747848,9115746902,396809,0.092424236,0.09166666,0.16666666,nan,0,1
9116750576,9116749630,396809,0.093939394,0.08863636,0.15454546,nan,0,1
9117754182,9117753235,396809,0.090909086,0.09318182,0.1651515,nan,0,1
9118756996,9118756051,396809,0.09469697,0.08863636,0.15681818,nan,0,1
9119760711,9119759766,396809,0.089393936,0.092424236,0.16666666,nan,0,1
9120763513,9120762568,396809,0.09166666,0.08863636,0.14924242,nan,0,1
9121745280,9121744335,396809,0.092424236,0.089393936,0.16363636,nan,0,1
9122748525,9122747544,396809,0.09318182,0.09015151,0.15681818,nan,0,1
9123751513,9123750567,396809,0.09015151,0.090909086,0.16363636,nan,0,1
9124754246,9124753300,396809,0.08863636,0.090909086,0.17045455,nan,0,1
9125758026,9125757080,396809,0.089393936,0.09166666,0.1651515,nan,0,1
9126760822,9126759877,396809,0.09469697,0.09318182,0.16742423,nan,0,1
9127764435,9127763489,396809,0.09166666,0.092424236,0.1651515,nan,0,1
9128746156,9128745210,396809,0.09166666,0.09166666,0.16666666,nan,0,1
9129749269,9129748323,396809,0.09469697,0.089393936,0.16136363,nan,0,1
9130752356,9130751410,396809,0.057575755,0.096969694,0.1340909,nan,0,1
9131755574,9131754605,396809,0.06439394,0.115909085,0.12499999,nan,0,1
9132758322,9132757377,396809,0.07121212,0.08030303,0.13636363,nan,0,1
9133761850,9133760904,396809,0.06515151,0.09166666,0.13484848,nan,0,1
9134764794,9134763849,396809,0.08333333,0.08484848,0.13636363,nan,0,1
9135746651,9135745695,396809,0.046969697,0.09015151,0.114393935,nan,0,1
9136749997,9136749052,396809,0.06060606,0.09166666,0.12727273,nan,0,1
9137753095,9137752150,396809,0.06439394,0.09924242,0.12045454,nan,0,1
9138756305,9138755359,396809,0.0840909,0.11969697,0.14015152,nan,0,1
9139759495,9139758540,396809,0.07272727,0.10833333,0.1340909,nan,0,1
9140762498,9140761553,396809,0.06969697,0.1030303,0.12954545,nan,0,1
9141744853,9141743908,396809,0.0810606,0.109848484,0.12727273,nan,0,1
9142747656,9142746711,396809,0.08484848,0.10909091,0.12878788,nan,0,1
9143750828,9143749882,396809,0.08030303,0.095454544,0.1310606,nan,0,1
9144754035,9144753090,396809,0.06969697,0.09015151,0.1310606,nan,0,1
9145757242,9145756285,396809,0.06212121,0.089393936,0.12045454,nan,0,1
9146760248,9146759302,396809,0.06969697,0.11742424,0.14166667,nan,0,1
9147763471,9147762526,396809,0.06439394,0.10378788,0.13863637,nan,0,1
9148745036,9148744091,396809,0.08333333,0.099999994,0.13636363,nan,0,1
9149748840,9149747895,396809,0.06515151,0.09166666,0.114393935,nan,0,1
9150751562,9150750617,396809,0.015151515,0.10227273,0.090909086,nan,0,1
9151754793,9151753848,396809,0.036363635,0.10530303,0.092424236,nan,0,1
9152757983,9152757037,396809,0.057575755,0.08712121,0.11666666,nan,0,1
9153761236,9153760256,396809,0.057575755,0.096969694,0.13484848,nan,0,1
9154764435,9154763489,396809,0.052272726,0.07954545,0.114393935,nan,0,1
9155746293,9155745347,396809,0.05530303,0.09166666,0.112878785,nan,0,1
9156749208,9156748263,396809,0.05530303,0.07878788,0.10909091,nan,0,1
9157752754,9157751807,396809,0.06363636,0.10227273,0.13257575,nan,0,1
9158755696,9158754750,396809,0.049999997,0.096969694,0.12499999,nan,0,1
9159758671,9159757726,396809,0.12954545,0.11969697,0.15984848,nan,0,1
9160761782,9160760836,396809,0.08712121,0.09924242,0.12878788,nan,0,1
9161743487,9161742541,396809,0.08863636,0.11212121,0.13257575,nan,0,1
9162746728,9162745783,396809,0.06515151,0.10378788,0.12499999,nan,0,1
9163749852,9163748906,396809,0.076515146,0.10833333,0.13636363,nan,0,1
9164753133,9164752187,396809,0.07954545,0.10227273,0.1310606,nan,0,1
9165756131,9165755183,396809,0.06666666,0.09621212,0.12878788,nan,0,1
9166759530,9166758585,396809,0.07121212,0.09772727,0.1340909,nan,0,1
9167762418,9167761473,396809,0.06515151,0.089393936,0.10909091,nan,0,1
9168744845,9168743899,396809,0.05909091,0.09924242,0.12196969,nan,0,1
9169747561,9169746616,396809,0.06212121,0.09772727,0.1310606,nan,0,1
9170750816,9170749870,396809,0.068939395,0.096969694,0.12878788,nan,0,1
9171753944,9171752999,396809,0.06212121,0.098484844,0.10757575,nan,0,1
9172757239,9172756293,396809,0.06590909,0.11893939,0.11666666,nan,0,1
9173760403,9173759458,396809,0.06666666,0.10909091,0.114393935,nan,0,1
9174763531,9174762586,396809,0.06666666,0.10454545,0.1340909,nan,0,1
9175745155,9175744210,396809,0.06742424,0.099999994,0.13257575,nan,0,1
9176748861,9176747914,396809,0.06969697,0.11515151,0.12575758,nan,0,1
9177751712,9177750767,396809,0.06742424,0.099999994,0.12196969,nan,0,1
9178754766,9178753811,396809,0.07424242,0.10151515,0.12196969,nan,0,1
9179758049,9179757105,396809,0.059848484,0.10378788,0.11818182,nan,0,1
9180761265,9180760319,396809,0.07121212,0.10378788,0.12727273,nan,0,1
9181742853,9181741907,396809,0.06363636,0.099999994,0.12727273,nan,0,1
9182746554,9182745608,396809,0.07727273,0.090909086,0.13257575,nan,0,1
9183749147,9183748201,396809,0.06969697,0.09469697,0.12727273,nan,0,1
9184752724,9184751778,396809,0.07575757,0.10075757,0.14393939,nan,0,1
9185755667,9185754721,396809,0.07424242,0.09924242,0.12727273,nan,0,1
9186758624,9186757678,396809,0.06439394,0.114393935,0.12348484,nan,0,1
9187762102,9187761156,396809,0.074999996,0.095454544,0.14393939,nan,0,1
9188744124,9188743178,396809,0.073484845,0.10757575,0.13257575,nan,0,1
9189746943,9189745997,396809,0.07424242,0.10151515,0.12499999,nan,0,1
9190750447,9190749500,396809,0.07424242,0.098484844,0.12878788,nan,0,1
9191753170,9191752225,396809,0.07272727,0.10530303,0.14393939,nan,0,1
9192756749,9192755803,396809,0.06818181,0.10757575,0.12348484,nan,0,1
9193759612,9193758666,396809,0.073484845,0.10833333,0.12727273,nan,0,1
9194741635,9194740689,396809,0.07424242,0.10909091,0.12878788,nan,0,1
9195744839,9195743893,396809,0.07575757,0.10909091,0.1340909,nan,0,1
9196747989,9196747044,396809,0.0810606,0.10454545,0.13636363,nan,0,1
9197750962,9197750017,396809,0.06590909,0.12121212,0.12727273,nan,0,1
9198754500,9198753555,396809,0.07727273,0.11212121,0.13636363,nan,0,1
9199757226,9199756280,396809,0.068939395,0.1060606,0.12499999,nan,0,1
9200760909,9200759963,396809,0.07272727,0.099999994,0.1340909,nan,0,1
9201742333,9201741387,396809,0.073484845,0.10075757,0.13257575,nan,0,1
9202745736,9202744791,396809,0.06666666,0.10530303,0.12878788,nan,0,1
9203748958,9203748012,396809,0.076515146,0.10227273,0.12727273,nan,0,1
9204752111,9204751166,396809,0.06666666,0.098484844,0.13257575,nan,0,1
9205754974,9205754028,396809,0.06590909,0.1030303,0.14393939,nan,0,1
9206758484,9206757539,396809,0.06590909,0.109848484,0.11515151,nan,0,1
9207761349,9207760403,396809,0.05681818,0.10530303,0.11969697,nan,0,1
9208743213,9208742267,396809,0.06212121,0.10530303,0.13257575,nan,0,1
9209746443,9209745497,396809,0.056060605,0.11515151,0.112878785,nan,0,1
9210749489,9210748543,396809,0.07575757,0.11742424,0.13484848,nan,0,1
9211752842,9211751896,396809,0.070454545,0.12196969,0.12499999,nan,0,1
9212755922,9212754959,396809,0.05833333,0.11212121,0.111363634,nan,0,1
9213758768,9213757822,396809,0.06742424,0.1030303,0.12878788,nan,0,1
9214762290,9214761344,396809,0.06742424,0.109848484,0.12954545,nan,0,1
9215743959,9215743012,396809,0.07575757,0.12424242,0.13636363,nan,0,1
9216747142,9216746196,396809,0.0780303,0.11212121,0.12878788,nan,0,1
9217750353,9217749409,396809,0.076515146,0.11060606,0.12045454,nan,0,1
9218753577,9218752625,396809,0.0780303,0.11363636,0.13863637,nan,0,1
9219756751,9219755805,396809,0.06363636,0.11363636,0.11666666,nan,0,1
9220759927,9220758981,396809,0.06666666,0.1310606,0.1310606,nan,0,1
9221762700,9221761755,396809,0.057575755,0.10757575,0.11818182,nan,0,1
9222745093,9222744148,396809,0.07424242,0.10909091,0.13787879,nan,0,1
9223747890,9223746927,396809,0.07575757,0.10833333,0.12878788,nan,0,1
9224751083,9224750137,396809,0.074999996,0.11060606,0.14696969,nan,0,1
9225754305,9225753359,396809,0.07727273,0.10378788,0.14393939,nan,0,1
9226757555,9226756609,396809,0.068939395,0.10454545,0.12954545,nan,0,1
9227760751,9227759805,396809,0.076515146,0.11212121,0.14545454,nan,0,1
9228764011,9228763066,396809,0.073484845,0.111363634,0.13257575,nan,0,1
9229745575,9229744629,396809,0.07878788,0.11893939,0.13257575,nan,0,1
9230749162,9230748216,396809,0.08484848,0.11893939,0.13863637,nan,0,1
9231752090,9231751122,396809,0.07878788,0.112878785,0.13636363,nan,0,1
9232755236,9232754281,396809,0.073484845,0.109848484,0.1310606,nan,0,1
9233758465,9233757519,396809,0.07954545,0.1060606,0.14015152,nan,0,1
9234761288,9234760342,396809,0.115909085,0.09469697,0.1560606,nan,0,1
9235764843,9235763897,396809,0.12121212,0.1030303,0.14772727,nan,0,1
9236746448,9236745503,396809,0.04242424,0.10833333,0.12575758,nan,0,1
9237749793,9237748848,396809,0.076515146,0.12121212,0.12727273,nan,0,1
9238752814,9238751868,396809,0.08560606,0.10833333,0.14318182,nan,0,1
9239756140,9239755195,396809,0.08484848,0.10757575,0.14924242,nan,0,1
9240759174,9240758228,396809,0.07954545,0.10530303,0.12348484,nan,0,1
9241762655,9241761710,396809,0.08181818,0.111363634,0.14015152,nan,0,1
9242744139,9242743194,396809,0.08484848,0.112878785,0.14545454,nan,0,1
9243747507,9243746561,396809,0.07878788,0.109848484,0.1340909,nan,0,1
9244750765,9244749820,396809,0.07575757,0.11515151,0.12954545,nan,0,1
9245753955,9245753009,396809,0.08333333,0.11515151,0.14015152,nan,0,1
9246757175,9246756230,396809,0.08257575,0.11212121,0.1340909,nan,0,1
9247760465,9247759520,396809,0.08030303,0.11212121,0.15681818,nan,0,1
9248763311,9248762366,396809,0.07954545,0.11818182,0.1340909,nan,0,1
9249745656,9249744711,396809,0.07272727,0.114393935,0.13636363,nan,0,1
9250748585,9250747640,396809,0.08257575,0.11666666,0.12954545,nan,0,1
9251751945,9251750959,396809,0.07727273,0.11515151,0.13863637,nan,0,1
9252755041,9252754096,396809,0.08257575,0.11515151,0.13484848,nan,0,1
9253758306,9253757360,396809,0.08181818,0.11363636,0.13787879,nan,0,1
9254761605,9254760659,396809,0.074999996,0.114393935,0.14318182,nan,0,1
9255743482,9255742537,396809,0.07878788,0.11212121,0.13257575,nan,0,1
9256746449,9256745503,396809,0.08257575,0.114393935,0.14696969,nan,0,1
9257749995,9257749050,396809,0.07878788,0.10909091,0.15227272,nan,0,1
9258752879,9258751934,396809,0.07575757,0.115909085,0.1310606,nan,0,1
9259756160,9259755215,396809,0.076515146,0.11515151,0.14545454,nan,0,1
9260759452,9260758507,396809,0.074999996,0.10530303,0.14696969,nan,0,1
9261762735,9261761790,396809,0.08333333,0.11363636,0.14545454,nan,0,1
9262744270,9262743312,396809,0.057575755,0.1310606,0.11969697,nan,0,1
9263748021,9263747076,396809,0.06590909,0.12727273,0.12575758,nan,0,1
9264750904,9264749958,396809,0.06969697,0.1280303,0.13863637,nan,0,1
9265754480,9265753534,396809,0.061363634,0.13939394,0.10530303,nan,0,1
9266757342,9266756388,396809,0.06060606,0.11666666,0.1310606,nan,0,1
9267760667,9267759721,396809,0.05681818,0.089393936,0.10757575,nan,0,1
9268742554,9268741608,396809,0.07272727,0.109848484,0.11818182,nan,0,1
9269745948,9269745003,396809,0.074999996,0.10833333,0.12348484,nan,0,1
9270748763,9270747817,396809,0.06666666,0.10757575,0.12575758,nan,0,1
9271752750,9271751804,396809,0.07424242,0.10909091,0.12954545,nan,0,1
9272755340,9272754395,396809,0.06590909,0.112878785,0.12954545,nan,0,1
9273759068,9273758122,396809,0.06818181,0.11742424,0.1310606,nan,0,1
9274762085,9274761140,396809,0.06666666,0.114393935,0.14015152,nan,0,1
9275744019,9275743073,396809,0.07575757,0.12121212,0.13257575,nan,0,1
9276747374,9276746428,396809,0.06969697,0.114393935,0.1340909,nan,0,1
9277750526,9277749581,396809,0.074999996,0.11666666,0.12954545,nan,0,1
9278753317,9278752371,396809,0.071969695,0.111363634,0.12575758,nan,0,1
9279756964,9279756017,396809,0.0810606,0.11893939,0.14924242,nan,0,1
9280759904,9280758958,396809,0.08257575,0.114393935,0.13863637,nan,0,1
9281763342,9281762395,396809,0.074999996,0.11818182,0.13636363,nan,0,1
9282745046,9282744092,396809,0.073484845,0.12575758,0.15227272,nan,0,1
9283748297,9283747316,396809,0.076515146,0.112878785,0.12954545,nan,0,1
9284751670,9284750724,396809,0.076515146,0.11742424,0.14015152,nan,0,1
9285754866,9285753921,396809,0.070454545,0.11818182,0.1310606,nan,0,1
9286757866,9286756920,396809,0.07272727,0.11818182,0.14772727,nan,0,1
9287761397,9287760451,396809,0.074999996,0.11060606,0.12196969,nan,0,1
9288764271,9288763325,396809,0.071969695,0.11742424,0.1310606,nan,0,1
9289746147,9289745201,396809,0.07878788,0.11666666,0.12878788,nan,0,1
9290749381,9290748436,396809,0.098484844,0.1030303,0.14318182,nan,0,1
9291752559,9291751613,396809,0.090909086,0.11515151,0.14696969,nan,0,1
9292755871,9292754925,396809,0.0810606,0.10681818,0.12499999,nan,0,1
9293759196,9293758250,396809,0.0840909,0.10909091,0.14166667,nan,0,1
9294761890,9294760945,396809,0.07954545,0.11363636,0.14696969,nan,0,1
9295744301,9295743355,396809,0.08181818,0.11363636,0.14166667,nan,0,1
9296747171,9296746214,396809,0.07272727,0.114393935,0.11818182,nan,0,1
9297750396,9297749450,396809,0.08257575,0.10909091,0.14696969,nan,0,1
9298753620,9298752674,396809,0.073484845,0.11515151,0.1340909,nan,0,1
9299756960,9299756015,396809,0.07424242,0.10530303,0.13257575,nan,0,1
9300760321,9300759375,396809,0.073484845,0.112878785,0.12348484,nan,0,1
9301763669,9301762724,396809,0.08257575,0.10530303,0.13484848,nan,0,1
9302745191,9302744246,396809,0.087878786,0.11818182,0.14772727,nan,0,1
9303748833,9303747888,396809,0.08560606,0.11363636,0.13863637,nan,0,1
9304751552,9304750606,396809,0.07727273,0.115909085,0.12727273,nan,0,1
9305754909,9305753963,396809,0.071969695,0.12121212,0.1340909,nan,0,1
9306758189,9306757244,396809,0.08560606,0.114393935,0.13787879,nan,0,1
9307761107,9307760161,396809,0.07878788,0.111363634,0.14166667,nan,0,1
9308764549,9308763604,396809,0.076515146,0.115909085,0.13484848,nan,0,1
9309746043,9309745097,396809,0.07727273,0.10530303,0.12954545,nan,0,1
9310749474,9310748528,396809,0.08560606,0.112878785,0.13863637,nan,0,1
9311752701,9311751756,396809,0.076515146,0.10909091,0.13863637,nan,0,1
9312756036,9312755061,396809,0.06818181,0.115909085,0.12954545,nan,0,1
9313758666,9313757720,396809,0.068939395,0.09166666,0.11969697,nan,0,1
9314762419,9314761473,396809,0.07878788,0.1060606,0.13863637,nan,0,1
9315744115,9315743169,396809,0.071969695,0.112878785,0.12878788,nan,0,1
9316747427,9316746481,396809,0.07272727,0.10909091,0.12575758,nan,0,1
9317750726,9317749779,396809,0.07878788,0.099999994,0.13787879,nan,0,1
9318753926,9318752959,396809,0.08257575,0.10909091,0.14696969,nan,0,1
9319757093,9319756148,396809,0.07878788,0.10681818,0.1340909,nan,0,1
9320760443,9320759496,396809,0.0840909,0.10075757,0.14924242,nan,0,1
9321763207,9321762261,396809,0.08030303,0.10378788,0.14393939,nan,0,1
