timestamp,timestamp_sample,device_id,x,y,z,temperature,error_count,is_external
1079362829,1079362237,197388,0.27526352,-0.037078343,0.46980655,25.0,0,0
1080359700,1080359097,197388,0.2754501,-0.035362773,0.47145095,25.0,0,0
1081367592,1081366450,197388,0.27867725,-0.036599852,0.46747777,25.0,0,0
1082359366,1082358719,197388,0.29387888,-0.038044754,0.4573838,25.0,0,0
1083368676,1083367496,197388,0.27157396,-0.032995418,0.47662267,25.0,0,0
1084368651,1084367341,197388,0.2733778,-0.031396117,0.47411907,25.0,0,0
1086368865,1086367472,197388,0.2780306,-0.03378971,0.4709418,25.0,0,0
1087354128,1087353596,197388,0.27623856,-0.02963502,0.4733483,25.0,0,0
1088364969,1088364306,197388,0.27999312,-0.033696238,0.46824637,25.0,0,0
1089360059,1089358542,197388,0.2795744,-0.032980315,0.4713468,25.0,0,0
1090368901,1090367535,197388,0.27293846,-0.032865986,0.47462526,25.0,0,0
1091361103,1091359787,197388,0.27489457,-0.029252382,0.47034255,25.0,0,0
1092368977,1092367686,197388,0.27254084,-0.030313775,0.46948236,25.0,0,0
1093369040,1093367674,197388,0.280398,-0.030453587,0.4686555,25.0,0,0
1094368617,1094367130,197388,0.27726075,-0.032458764,0.4706146,25.0,0,0
1095369222,1095367951,197388,0.27737808,-0.03132779,0.4693616,25.0,0,0
1096363729,1096363180,197388,0.27975616,-0.028530821,0.47361317,25.0,0,0
1097357766,1097356234,197388,0.27957833,-0.030390808,0.4710721,25.0,0,0
1098367402,1098366860,197388,0.27866137,-0.032625787,0.47017652,25.0,0,0
1100368602,1100367424,197388,0.27954477,-0.029553894,0.47125542,25.0,0,0
1101369124,1101367842,197388,0.27407843,-0.03316221,0.47255522,25.0,0,0
1102364716,1102363271,197388,0.27360988,-0.03228764,0.47396055,25.0,0,0
1103369193,1103367996,197388,0.27334726,-0.03628427,0.4724858,25.0,0,0
1104360228,1104359574,197388,0.2766434,-0.032862194,0.46831346,25.0,0,0
1105369488,1105367944,197388,0.27232227,-0.032254025,0.47429317,25.0,0,0
1106369913,1106368342,197388,0.27526906,-0.03652763,0.46879917,25.0,0,0
1107369199,1107367341,197388,0.28069687,-0.03426251,0.4740767,25.0,0,0
1109369234,1109367045,197388,0.27369347,-0.03368106,0.47021484,25.0,0,0
1110359823,1110359278,197388,0.28128734,-0.034244224,0.4694529,25.0,0,0
1111360457,1111359911,197388,0.27853385,-0.029637318,0.46748948,25.0,0,0
1112360423,1112359880,197388,0.27880976,-0.030779649,0.4745209,25.0,0,0
1113361589,1113361048,197388,0.27422804,-0.03202412,0.46891415,25.0,0,0
1114369545,1114368147,197388,0.28021455,-0.031236961,0.4692097,25.0,0,0
1116365190,1116363692,197388,0.2766628,-0.028625833,0.47410035,25.0,0,0
1117357471,1117355933,197388,0.2779415,-0.031230377,0.4725286,25.0,0,0
1118369415,1118368247,197388,0.2729277,-0.029840512,0.4741938,25.0,0,0
1119369383,1119368087,197388,0.27606362,-0.0320536,0.47251984,25.0,0,0
1120370238,1120368580,197388,0.27854863,-0.032868285,0.47181392,25.0,0,0
1121356249,1121355591,197388,0.2772034,-0.033064894,0.46957636,25.0,0,0
1122365283,1122364085,197388,0.27999505,-0.03472792,0.46872592,25.0,0,0
1123369978,1123368604,197388,0.27867284,-0.035646547,0.47317493,25.0,0,0
1124367867,1124366636,197388,0.2796494,-0.030500054,0.47100785,25.0,0,0
1125356721,1125356046,197388,0.28088057,-0.03488512,0.47067517,25.0,0,0
1126369457,1126368076,197388,0.27372098,-0.030303193,0.47244343,25.0,0,0
1128370647,1128369193,197388,0.27482003,-0.031649332,0.46970382,25.0,0,0
1129357025,1129356354,197388,0.27648747,-0.034733508,0.47106165,25.0,0,0
1130370852,1130369452,197388,0.27287132,-0.028132565,0.46934724,25.0,0,0
1131370449,1131368841,197388,0.27508336,-0.032527786,0.470325,25.0,0,0
1132362627,1132361424,197388,0.27327928,-0.032877658,0.4736681,25.0,0,0
1133370251,1133369094,197388,0.27675852,-0.036219317,0.4746684,25.0,0,0
1134370479,1134369096,197388,0.27696723,-0.03366093,0.46758196,25.0,0,0
1135362691,1135361135,197388,0.27593908,-0.036837965,0.47233415,25.0,0,0
1136361988,1136360598,197388,0.27843553,-0.02919098,0.46812028,25.0,0,0
1137365863,1137364368,197388,0.2776385,-0.03554845,0.46722558,25.0,0,0
1138369992,1138368464,197388,0.28148317,-0.034376215,0.47134084,25.0,0,0
1139365176,1139364643,197388,0.27514014,-0.035823237,0.46746072,25.0,0,0
1140362454,1140361105,197388,0.27940693,-0.029413667,0.47047222,25.0,0,0
1141365019,1141364486,197388,0.27866548,-0.030129055,0.47475722,25.0,0,0
1142364981,1142364438,197388,0.2795011,-0.031476017,0.4674644,25.0,0,0
1143361152,1143360607,197388,0.2739519,-0.030871008,0.47351643,25.0,0,0
1144360943,1144360410,197388,0.2736959,-0.031564273,0.47369283,25.0,0,0
1145370937,1145369778,197388,0.27378777,-0.032353878,0.47163367,25.0,0,0
1146360932,1146360399,197388,0.2732183,-0.034415167,0.47467873,25.0,0,0
1148362211,1148360896,197388,0.2755857,-0.035535425,0.4749053,25.0,0,0
1149370862,1149369314,197388,0.27566803,-0.034695692,0.47118378,25.0,0,0
1150363157,1150361691,197388,0.27944836,-0.03045181,0.46809113,25.0,0,0
1151366226,1151365037,197388,0.28126544,-0.032820817,0.4731842,25.0,0,0
1152366037,1152364719,197388,0.27442613,-0.029976195,0.4707497,25.0,0,0
1153366161,1153364730,197388,0.27428052,-0.03686508,0.4709132,25.0,0,0
1154370557,1154369307,197388,0.28031474,-0.03275838,0.4683044,25.0,0,0
1156370363,1156369647,197388,0.27567363,-0.033160783,0.47064328,25.0,0,0
1157366221,1157364814,197388,0.27772582,-0.031483043,0.47340608,25.0,0,0
1158362394,1158361838,197388,0.2794354,-0.029866021,0.46939957,25.0,0,0
1159363458,1159362125,197388,0.27403507,-0.029828308,0.47458363,25.0,0,0
1160362307,1160361776,197388,0.27793333,-0.030248024,0.4699383,25.0,0,0
1161366342,1161364936,197388,0.27912638,-0.03077188,0.46792385,25.0,0,0
1162370877,1162369714,197388,0.27527055,-0.03280775,0.4697438,25.0,0,0
1163371217,1163370037,197388,0.2747605,-0.032898244,0.470583,25.0,0,0
1164361958,1164361426,197388,0.27648857,-0.033947483,0.4695748,25.0,0,0
1165362192,1165361647,197388,0.27956983,-0.034125924,0.47472927,25.0,0,0
1167362808,1167362266,197388,0.27760738,-0.034274444,0.4736008,25.0,0,0
1168361781,1168361239,197388,0.2795011,-0.03644837,0.4728674,25.0,0,0
1170365810,1170365268,197388,0.2766816,-0.03411839,0.4687673,25.0,0,0
1171361815,1171361273,197388,0.27964172,-0.033352073,0.47528252,25.0,0,0
1172363971,1172361943,197388,0.27447128,-0.027610997,0.47182843,25.0,0,0
1174358580,1174358044,197388,0.28068,-0.037562978,0.4740417,25.0,0,0
1176371357,1176370210,197388,0.2737492,-0.03241419,0.4683537,25.0,0,0
1178362279,1178361747,197388,0.27859446,-0.03185038,0.47396323,25.0,0,0
1179368648,1179366913,197388,0.27759352,-0.035080355,0.47305125,25.0,0,0
1180370134,1180369595,197388,0.27493796,-0.03334266,0.46931362,25.0,0,0
1181362738,1181362186,197388,0.27399898,-0.031285558,0.46939084,25.0,0,0
1182362823,1182362276,197388,0.2786684,-0.0360475,0.46776628,25.0,0,0
1183371351,1183370009,197388,0.27589628,-0.030013574,0.47225323,25.0,0,0
1184369625,1184365805,197388,0.21973774,-0.08016074,0.4967179,25.0,0,0
1185361185,1185357595,197388,0.036392786,-0.13418862,0.5297872,25.0,0,0
1186362555,1186358898,197388,-0.090133846,-0.20204647,0.50274736,25.0,0,0
