timestamp,timestamp_sample,device_id,x,y,z,temperature,error_count,is_external
8476665517,8476664396,4395041,-0.28861383,-0.14992926,0.32234278,nan,0,0
8476715515,8476714395,4395041,-0.29235536,-0.15742213,0.32229358,nan,0,0
8477665517,8477664396,4395041,-0.28111094,-0.15367398,0.30021867,nan,0,0
8478665515,8478664395,4395041,-0.28485906,-0.16866656,0.30463365,nan,0,0
8479665516,8479664395,4395041,-0.29611027,-0.15742573,0.32234278,nan,0,0
8480665515,8480664395,4395041,-0.30360675,-0.16117395,0.31792712,nan,0,0
8481665526,8481664405,4395041,-0.3185851,-0.16116656,0.31783015,nan,0,0
8482665516,8482664395,4395041,-0.28111094,-0.16117027,0.30904865,nan,0,0
8483665515,8483664394,4395041,-0.28111735,-0.16117395,0.31792712,nan,0,0
8484615515,8484614395,4395041,-0.2886072,-0.1649184,0.3178786,nan,0,0
8485665516,8485664395,4395041,-0.2773628,-0.15367398,0.32229358,nan,0,0
8486665515,8486664395,4395041,-0.30734795,-0.14617768,0.31346363,nan,0,0
8487665552,8487664395,4395041,-0.30359286,-0.15741852,0.32224444,nan,0,0
8488665515,8488664394,4395041,-0.30359977,-0.14617768,0.32229358,nan,0,0
8489665525,8489664405,4395041,-0.2886072,-0.15742213,0.3178786,nan,0,0
8490665517,8490664395,4395041,-0.30359286,-0.15741852,0.32224444,nan,0,0
8491665515,8491664395,4395041,-0.30359286,-0.1686627,0.31783015,nan,0,0
8492665515,8492664394,4395041,-0.2960967,-0.14242627,0.31341586,nan,0,0
8493665515,8493664395,4395041,-0.29983795,-0.17615478,0.31336802,nan,0,0
8494665516,8494664394,4395041,-0.31482983,-0.14991897,0.31778166,nan,0,0
8495665612,8495664492,4395041,-0.29983795,-0.16865884,0.31336802,nan,0,0
8496665518,8496664396,4395041,-0.30359977,-0.15742213,0.32229358,nan,0,0
8497665515,8497664395,4395041,-0.28484604,-0.16491087,0.31778166,nan,0,0
8498665515,8498664395,4395041,-0.2923353,-0.1611592,0.3177332,nan,0,0
8499665525,8499664404,4395041,-0.30732685,-0.1611592,0.3177332,nan,0,0
8500665516,8500664395,4395041,-0.29607642,-0.1611555,0.3220971,nan,0,0
8501665546,8501664425,4395041,-0.3110605,-0.15365638,0.31763637,nan,0,0
8502665515,8502664395,4395041,-0.29606962,-0.16115183,0.31763637,nan,0,0
8503665515,8503664395,4395041,-0.30731982,-0.1611555,0.31768477,nan,0,0
8504665515,8504664395,4395041,-0.2998242,-0.1349209,0.31768477,nan,0,0
8505665516,8505664395,4395041,-0.2998242,-0.1611555,0.31768477,nan,0,0
8506665524,8506664395,4395041,-0.3110676,-0.1611555,0.31768477,nan,0,0
8507665550,8507664395,4395041,-0.29231527,-0.16114816,0.31317702,nan,0,0
8508665551,8508664430,4395041,-0.29231527,-0.16114816,0.31758797,nan,0,0
8509665515,8509664395,4395041,-0.29606962,-0.14990868,0.32204798,nan,0,0
8510665515,8510664395,4395041,-0.3110605,-0.16489954,0.32204798,nan,0,0
8511665516,8511664395,4395041,-0.28856102,-0.15739693,0.31753957,nan,0,0
8512665524,8512664395,4395041,-0.2885544,-0.16488823,0.3174912,nan,0,0
8513665516,8513664395,4395041,-0.29604933,-0.1498984,0.3174912,nan,0,0
8514665515,8514664395,4395041,-0.29980364,-0.15364937,0.31753957,nan,0,0
8515665534,8515664403,4395041,-0.3110463,-0.15739693,0.32194984,nan,0,0
8516666107,8516664987,4395041,-0.29605612,-0.15364937,0.32194984,nan,0,0
8517665516,8517664395,4395041,-0.30354425,-0.16114078,0.3174912,nan,0,0
8518665555,8518664434,4395041,-0.2997968,-0.15364586,0.3174912,nan,0,0
8519665515,8519664394,4395041,-0.29230186,-0.17238316,0.3174912,nan,0,0
8520665515,8520664395,4395041,-0.29230186,-0.15739332,0.3130816,nan,0,0
8521665548,8521664395,4395041,-0.3035304,-0.17612256,0.3173945,nan,0,0
8522665516,8522664395,4395041,-0.3035373,-0.1611371,0.31744283,nan,0,0
8523665515,8523664394,4395041,-0.3110321,-0.16488446,0.31744283,nan,0,0
8524665538,8524664395,4395041,-0.29604256,-0.16863184,0.31744283,nan,0,0
8525665515,8525664395,4395041,-0.30727068,-0.16112974,0.3217537,nan,0,0
8526665515,8526664395,4395041,-0.2997831,-0.16488071,0.3173945,nan,0,0
8527665517,8527664395,4395041,-0.28853464,-0.15363534,0.31293854,nan,0,0
8528665515,8528664395,4395041,-0.3147579,-0.16862032,0.32170478,nan,0,0
8529665514,8529664395,4395041,-0.29977626,-0.17237134,0.31734613,nan,0,0
8530665515,8530664395,4395041,-0.29227522,-0.13489625,0.31289095,nan,0,0
8531665515,8531664395,4395041,-0.28478098,-0.15363184,0.31729785,nan,0,0
8532665515,8532664395,4395041,-0.30725664,-0.15737535,0.3172495,nan,0,0
8533665541,8533664421,4395041,-0.2960088,-0.17610648,0.32160684,nan,0,0
8534665515,8534664395,4395041,-0.29975575,-0.15362482,0.31720126,nan,0,0
8535665533,8535664395,4395041,-0.29976258,-0.15737535,0.3172495,nan,0,0
8536665515,8536664395,4395041,-0.3034958,-0.16860875,0.32155788,nan,0,0
8537666658,8537665534,4395041,-0.29600206,-0.15736818,0.31715298,nan,0,0
8538665552,8538664395,4395041,-0.2922552,-0.15362132,0.31274807,nan,0,0
8539665516,8539664395,4395041,-0.30723566,-0.1573646,0.32150897,nan,0,0
8540665515,8540664395,4395041,-0.284755,-0.14987105,0.3259132,nan,0,0
8541665516,8541664395,4395041,-0.2847485,-0.17234777,0.31265292,nan,0,0
8542665516,8542664395,4395041,-0.29973525,-0.15361431,0.32146004,nan,0,0
8543665515,8543664395,4395041,-0.29972842,-0.14611761,0.31700823,nan,0,0
8544665516,8544664395,4395041,-0.29597506,-0.1685934,0.31696004,nan,0,0
8545665515,8545664395,4395041,-0.30347505,-0.15735742,0.32141113,nan,0,0
8546665516,8546664394,4395041,-0.29596832,-0.16109668,0.32131338,nan,0,0
8547665515,8547664394,4395041,-0.2997216,-0.16110036,0.31696004,nan,0,0
8548665516,8548664395,4395041,-0.3034612,-0.16109668,0.32131338,nan,0,0
8549665552,8549664432,4395041,-0.2884689,-0.15734668,0.31686366,nan,0,0
8550665515,8550664395,4395041,-0.29970795,-0.16858572,0.3256654,nan,0,0
8551665515,8551664395,4395041,-0.31468615,-0.16858189,0.3168155,nan,0,0
8552665515,8552664395,4395041,-0.30719364,-0.14610429,0.31241527,nan,0,0
8553665521,8553664396,4395041,-0.27347726,-0.16858189,0.3212157,nan,0,0
8554665516,8554664395,4395041,-0.29969433,-0.15733951,0.32556644,nan,0,0
8555665516,8555664395,4395041,-0.2847096,-0.14610098,0.32116687,nan,0,0
8556665567,8556664446,4395041,-0.28844923,-0.15358984,0.31232032,nan,0,0
8557665517,8557664394,4395041,-0.3034336,-0.17606641,0.3167192,nan,0,0
8558667112,8558665992,4395041,-0.29593465,-0.15358634,0.31667107,nan,0,0
8559665515,8559664395,4395041,-0.28469664,-0.14609432,0.3210693,nan,0,0
8560665516,8560664395,4395041,-0.30342665,-0.14984033,0.3210693,nan,0,0
8561665558,8561664438,4395041,-0.29592794,-0.1573288,0.3122254,nan,0,0
8562665524,8562664401,4395041,-0.29217535,-0.14234185,0.32097176,nan,0,0
8563665515,8563664395,4395041,-0.30341288,-0.16856271,0.32097176,nan,0,0
8564665515,8564664394,4395041,-0.2884361,-0.1573288,0.31662294,nan,0,0
8565665515,8565664395,4395041,-0.28467724,-0.17230465,0.31652674,nan,0,0
8566665527,8566664394,4395041,-0.27717945,-0.16480939,0.32087424,nan,0,0
8567665538,8567664395,4395041,-0.29216874,-0.17230465,0.32092297,nan,0,0
8568665515,8568664394,4395041,-0.30339912,-0.14608106,0.32526982,nan,0,0
8569665515,8569664394,4395041,-0.3033922,-0.16106007,0.32522038,nan,0,0
8570665515,8570664395,4395041,-0.2884099,-0.16855124,0.31643063,nan,0,0
8571665516,8571664395,4395041,-0.29964665,-0.15356891,0.3208255,nan,0,0
8572665515,8572664395,4395041,-0.29963985,-0.1797839,0.32077682,nan,0,0
8573665515,8573664395,4395041,-0.29215547,-0.15731448,0.3208255,nan,0,0
8574665516,8574664396,4395041,-0.30337846,-0.16105276,0.32512164,nan,0,0
8575665516,8575664395,4395041,-0.29588765,-0.1760344,0.3207281,nan,0,0
8576665530,8576664395,4395041,-0.29962626,-0.16104911,0.31628662,nan,0,0
8577665517,8577664395,4395041,-0.2958809,-0.15355845,0.32067946,nan,0,0
8578665515,8578664395,4395041,-0.2958809,-0.16104911,0.32507235,nan,0,0
8579665515,8579664395,4395041,-0.29212898,-0.14980973,0.3206308,nan,0,0
8580665518,8580664397,4395041,-0.29212233,-0.17227727,0.32497367,nan,0,0
8581665515,8581664394,4395041,-0.3145933,-0.15355149,0.31179905,nan,0,0
8582665528,8582664395,4395041,-0.2958675,-0.16853212,0.32058215,nan,0,0
8583665516,8583664395,4395041,-0.28837064,-0.17601845,0.3205335,nan,0,0
8584665516,8584664395,4395041,-0.3033578,-0.14980632,0.32058215,nan,0,0
8585665515,8585664395,4395041,-0.29211572,-0.16478322,0.32492438,nan,0,0
8586665515,8586664395,4395041,-0.3033578,-0.15729664,0.32058215,nan,0,0
8587665549,8587664428,4395041,-0.3070821,-0.15728594,0.32043627,nan,0,0
8588665549,8588664394,4395041,-0.2995923,-0.16477574,0.31604677,nan,0,0
8589665515,8589664395,4395041,-0.29211572,-0.15729308,0.3205335,nan,0,0
8590665818,8590664698,4395041,-0.3070821,-0.16103084,0.31604677,nan,0,0
8591665516,8591664395,4395041,-0.3070821,-0.15728594,0.32482582,nan,0,0
8592665516,8592664395,4395041,-0.28835106,-0.16102722,0.31599882,nan,0,0
8593665515,8593664395,4395041,-0.3070682,-0.16851303,0.32033914,nan,0,0
8594665516,8594664395,4395041,-0.29208925,-0.14978936,0.32472736,nan,0,0
8595665531,8595664394,4395041,-0.29958552,-0.13855831,0.31599882,nan,0,0
8596665515,8596664395,4395041,-0.29208267,-0.16101994,0.3202906,nan,0,0
8597665518,8597664395,4395041,-0.295834,-0.16102357,0.32033914,nan,0,0
8598665516,8598664395,4395041,-0.29208267,-0.17599852,0.31590304,nan,0,0
8599665515,8599664395,4395041,-0.30706125,-0.15727529,0.3115155,nan,0,0
8600665515,8600664394,4395041,-0.31079885,-0.17599453,0.32024205,nan,0,0
8601665515,8601664394,4395041,-0.29581392,-0.1685016,0.32019347,nan,0,0
8602665515,8602664394,4395041,-0.29581392,-0.1685016,0.32019347,nan,0,0
8603665515,8603664395,4395041,-0.31826642,-0.16100538,0.32448134,nan,0,0
8604665516,8604664395,4395041,-0.29581392,-0.16101265,0.32019347,nan,0,0
8605665525,8605664404,4395041,-0.29580057,-0.15726106,0.32009646,nan,0,0
8606665518,8606664395,4395041,-0.29954487,-0.17598262,0.32009646,nan,0,0
8607665515,8607664395,4395041,-0.28831196,-0.16474968,0.32009646,nan,0,0
8608665529,8608664395,4395041,-0.29953808,-0.1722344,0.32004803,nan,0,0
8609665528,8609664394,4395041,-0.29579386,-0.14602481,0.32004803,nan,0,0
8610665515,8610664395,4395041,-0.3070196,-0.14976566,0.32438308,nan,0,0
8611666343,8611665223,4395041,-0.29952458,-0.1385301,0.31995112,nan,0,0
8612665535,8612664411,4395041,-0.31075674,-0.15725039,0.3155682,nan,0,0
8613665515,8613664394,4395041,-0.29203644,-0.15725039,0.31995112,nan,0,0
8614665540,8614664396,4395041,-0.29577383,-0.1609908,0.32428485,nan,0,0
8615665515,8615664395,4395041,-0.29577383,-0.1609908,0.31990263,nan,0,0
8616665516,8616664395,4395041,-0.29201669,-0.16472736,0.3154249,nan,0,0
8617665515,8617664394,4395041,-0.30324125,-0.1572362,0.31537718,nan,0,0
8618665515,8618664395,4395041,-0.31073567,-0.14975214,0.3198058,nan,0,0
8619665522,8619664402,4395041,-0.31073567,-0.15349594,0.3198058,nan,0,0
8620665515,8620664395,4395041,-0.29949751,-0.1572362,0.31537718,nan,0,0
8621665515,8621664395,4395041,-0.29949751,-0.17221107,0.3197574,nan,0,0
8622665518,8622664398,4395041,-0.29576048,-0.14975214,0.3198058,nan,0,0
8623665515,8623664394,4395041,-0.29574713,-0.16097628,0.32408857,nan,0,0
8624665554,8624664432,4395041,-0.28825983,-0.16097628,0.31970903,nan,0,0
8625665516,8625664395,4395041,-0.28825337,-0.1722033,0.32403958,nan,0,0
8626665527,8626664395,4395041,-0.28826636,-0.16097991,0.32413763,nan,0,0
8627665515,8627664395,4395041,-0.29574046,-0.15722911,0.31528175,nan,0,0
8628665534,8628664395,4395041,-0.30697802,-0.14974537,0.32408857,nan,0,0
8629665515,8629664395,4395041,-0.29574046,-0.15722911,0.31966066,nan,0,0
8630665516,8630664395,4395041,-0.30695727,-0.16845216,0.32394156,nan,0,0
8631665526,8631664406,4395041,-0.2994705,-0.16470878,0.31956398,nan,0,0
8632666855,8632665724,4395041,-0.30320707,-0.15721849,0.31951565,nan,0,0
8633665517,8633664394,4395041,-0.2957205,-0.17219168,0.3238926,nan,0,0
8634665516,8634664395,4395041,-0.30695036,-0.15721849,0.31951565,nan,0,0
8635665519,8635664395,4395041,-0.30695036,-0.15721849,0.3238926,nan,0,0
8636665516,8636664395,4395041,-0.3181731,-0.15347174,0.3238436,nan,0,0
8637665564,8637664444,4395041,-0.31816596,-0.15346828,0.32379466,nan,0,0
8638665515,8638664395,4395041,-0.30318663,-0.15720788,0.31937075,nan,0,0
8639665516,8639664395,4395041,-0.28447777,-0.14972515,0.31941906,nan,0,0
8640665518,8640664395,4395041,-0.30692965,-0.15346482,0.31937075,nan,0,0
8641665516,8641664395,4395041,-0.31065872,-0.15720078,0.31927425,nan,0,0
8642665539,8642664417,4395041,-0.3181588,-0.15720788,0.31937075,nan,0,0
8643665534,8643664394,4395041,-0.31065872,-0.16094367,0.31927425,nan,0,0
8644665515,8644664395,4395041,-0.29569384,-0.15720432,0.31932253,nan,0,0
8645665547,8645664427,4395041,-0.31065172,-0.16094005,0.31922603,nan,0,0
8646665516,8646664395,4395041,-0.2807094,-0.15345447,0.31922603,nan,0,0
8647665516,8647664395,4395041,-0.3031593,-0.14222288,0.3279224,nan,0,0
8648665515,8648664395,4395041,-0.29193777,-0.15719727,0.31922603,nan,0,0
8649665516,8649664395,4395041,-0.30689514,-0.16841806,0.31912962,nan,0,0
8650665515,8650664395,4395041,-0.30689514,-0.14970493,0.31912962,nan,0,0
8651665516,8651664395,4395041,-0.30689514,-0.14970493,0.31912962,nan,0,0
8652665515,8652664394,4395041,-0.28070307,-0.1497083,0.32355008,nan,0,0
8653667307,8653666187,4395041,-0.29566061,-0.14595903,0.3190814,nan,0,0
8654665516,8654664395,4395041,-0.31062382,-0.1684105,0.3146629,nan,0,0
8655665554,8655664424,4395041,-0.3031389,-0.15344067,0.3190332,nan,0,0
8656665516,8656664395,4395041,-0.3031457,-0.14970158,0.3190814,nan,0,0
8657665515,8657664395,4395041,-0.30688134,-0.14595576,0.3190332,nan,0,0
8658665515,8658664395,4395041,-0.29939643,-0.1422133,0.32340354,nan,0,0
8659665515,8659664395,4395041,-0.3031457,-0.15344411,0.3190814,nan,0,0
8660665515,8660664395,4395041,-0.291905,-0.16092198,0.31898504,nan,0,0
8661665514,8661664394,4395041,-0.31060287,-0.16465694,0.32325715,nan,0,0
8662665515,8662664394,4395041,-0.30686757,-0.16091837,0.3189369,nan,0,0
8663665535,8663664414,4395041,-0.29564735,-0.1571796,0.32335472,nan,0,0
8664665525,8664664394,4395041,-0.29937628,-0.16839916,0.31888878,nan,0,0
8665665515,8665664395,4395041,-0.30686757,-0.16466065,0.32330593,nan,0,0
8666665516,8666664395,4395041,-0.31060287,-0.16091475,0.32325715,nan,0,0
8667665515,8667664395,4395041,-0.30311847,-0.15343033,0.31452045,nan,0,0
8668665515,8668664394,4395041,-0.3031253,-0.16091837,0.3189369,nan,0,0
8669665515,8669664394,4395041,-0.31059593,-0.1534269,0.31447297,nan,0,0
8670665516,8670664395,4395041,-0.29937628,-0.15717255,0.32325715,nan,0,0
8671665517,8671664396,4395041,-0.31433806,-0.16465326,0.32320833,nan,0,0
8672665530,8672664409,4395041,-0.28065896,-0.16091114,0.31884068,nan,0,0
8673665535,8673664414,4395041,-0.29562744,-0.14594267,0.31447297,nan,0,0
8674665515,8674664395,4395041,-0.314331,-0.14968142,0.3231596,nan,0,0
8675665515,8675664394,4395041,-0.29936284,-0.15342346,0.31442553,nan,0,0
8676665573,8676664395,4395041,-0.29188535,-0.15716903,0.32320833,nan,0,0
8677665516,8677664395,4395041,-0.29188535,-0.16839539,0.31447297,nan,0,0
8678665515,8678664395,4395041,-0.31059593,-0.14594267,0.31884068,nan,0,0
8679665515,8679664395,4395041,-0.2843883,-0.15342002,0.32311085,nan,0,0
8680665515,8680664395,4395041,-0.2993561,-0.14967805,0.32311085,nan,0,0
8681665597,8681664395,4395041,-0.3068538,-0.15716903,0.327576,nan,0,0
8682665521,8682664394,4395041,-0.28813025,-0.15716197,0.31874445,nan,0,0
8683665515,8683664395,4395041,-0.31432393,-0.1459361,0.31874445,nan,0,0
8684665515,8684664395,4395041,-0.29560757,-0.14967471,0.3230621,nan,0,0
8685666013,8685664887,4395041,-0.28814322,-0.16091114,0.32320833,nan,0,0
8686665520,8686664395,4395041,-0.30309808,-0.16838782,0.32311085,nan,0,0
8687665516,8687664395,4395041,-0.30310488,-0.16090754,0.3231596,nan,0,0
8688665516,8688664395,4395041,-0.29934943,-0.16838408,0.3230621,nan,0,0
8689665533,8689664413,4395041,-0.31057504,-0.15341659,0.3186964,nan,0,0
8690665515,8690664395,4395041,-0.28813025,-0.17212977,0.3143781,nan,0,0
8691665515,8691664395,4395041,-0.29560095,-0.14218779,0.3186483,nan,0,0
8692665515,8692664395,4395041,-0.31805164,-0.16089672,0.3186483,nan,0,0
8693665515,8693664394,4395041,-0.29184607,-0.15714788,0.32291594,nan,0,0
8694665515,8694664395,4395041,-0.29185262,-0.16463481,0.3142359,nan,0,0
8695665515,8695664395,4395041,-0.30683318,-0.15341659,0.3186964,nan,0,0
8696665569,8696664430,4395041,-0.3030845,-0.14967136,0.31428328,nan,0,0
8697665516,8697664396,4395041,-0.3068194,-0.16089311,0.3186003,nan,0,0
8698665541,8698664397,4395041,-0.3180374,-0.15714788,0.31855223,nan,0,0
8699665515,8699664395,4395041,-0.30307093,-0.17585595,0.31855223,nan,0,0
8700665515,8700664395,4395041,-0.2955877,-0.16088949,0.32291594,nan,0,0
8701665555,8701664435,4395041,-0.28435647,-0.1496613,0.3228673,nan,0,0
8702665515,8702664395,4395041,-0.30680567,-0.15714437,0.3228673,nan,0,0
8703665531,8703664397,4395041,-0.28435647,-0.16836897,0.31414118,nan,0,0
8704665515,8704664395,4395041,-0.29183304,-0.14965796,0.31845623,nan,0,0
8705665517,8705664395,4395041,-0.29931593,-0.14965796,0.32281864,nan,0,0
8706666508,8706665388,4395041,-0.30305058,-0.16087869,0.31840825,nan,0,0
8707665515,8707664395,4395041,-0.31054026,-0.16462375,0.32718104,nan,0,0
8708665516,8708664395,4395041,-0.3105333,-0.16836143,0.3140465,nan,0,0
8709665516,8709664395,4395041,-0.29181993,-0.15713382,0.32272136,nan,0,0
8710665516,8710664395,4395041,-0.29556784,-0.16462006,0.31840825,nan,0,0
8711665515,8711664394,4395041,-0.3180089,-0.16461638,0.31836027,nan,0,0
8712665515,8712664395,4395041,-0.30303702,-0.1571303,0.32267272,nan,0,0
8713665517,8713664396,4395041,-0.29931593,-0.15339941,0.31845623,nan,0,0
8714665522,8714664395,4395041,-0.29183304,-0.16836521,0.32281864,nan,0,0
8715665515,8715664395,4395041,-0.29557446,-0.15714087,0.31845623,nan,0,0
8716665526,8716664394,4395041,-0.32175738,-0.1384305,0.31840825,nan,0,0
8717665515,8717664395,4395041,-0.30303702,-0.14216551,0.32267272,nan,0,0
8718665538,8718664394,4395041,-0.29555464,-0.1608715,0.32267272,nan,0,0
8719665520,8719664395,4395041,-0.30303702,-0.13842432,0.32267272,nan,0,0
8720665555,8720664398,4395041,-0.31426764,-0.16461638,0.31836027,nan,0,0
8721665515,8721664395,4395041,-0.28432468,-0.17209125,0.32262412,nan,0,0
8722665515,8722664395,4395041,-0.3217358,-0.1608679,0.32262412,nan,0,0
8723665517,8723664395,4395041,-0.29180038,-0.16460535,0.31821644,nan,0,0
8724665517,8724664395,4395041,-0.28432468,-0.16460903,0.31826437,nan,0,0
8725665518,8725664395,4395041,-0.30304378,-0.14590997,0.32272136,nan,0,0
8726665515,8726664395,4395041,-0.31051245,-0.15712678,0.32262412,nan,0,0
8727615515,8727614394,4395041,-0.29927576,-0.17208357,0.322527,nan,0,0
8728665554,8728664394,4395041,-0.29927576,-0.16460167,0.31816852,nan,0,0
8729665516,8729664395,4395041,-0.3104986,-0.14589693,0.31816852,nan,0,0
8730665515,8730664395,4395041,-0.3030235,-0.15712328,0.32257557,nan,0,0
8731665515,8731664394,4395041,-0.3030235,-0.16460535,0.32257557,nan,0,0
8732665515,8732664394,4395041,-0.2955348,-0.14963788,0.31816852,nan,0,0
8733665559,8733664395,4395041,-0.2768239,-0.1533754,0.3181206,nan,0,0
8734665515,8734664395,4395041,-0.3030167,-0.1608607,0.322527,nan,0,0
8735665516,8735664395,4395041,-0.2955414,-0.17582843,0.31821644,nan,0,0
8736665556,8736664435,4395041,-0.31423953,-0.15337881,0.31816852,nan,0,0
8737665516,8737664395,4395041,-0.28804648,-0.16833885,0.3181206,nan,0,0
8738665515,8738664394,4395041,-0.30675763,-0.15337881,0.322527,nan,0,0
8739665515,8739664395,4395041,-0.3030235,-0.1720874,0.31821644,nan,0,0
8740665516,8740664395,4395041,-0.29927576,-0.15337881,0.31816852,nan,0,0
8741665542,8741664422,4395041,-0.2955216,-0.16085353,0.32242987,nan,0,0
8742665515,8742664395,4395041,-0.29179385,-0.15337881,0.322527,nan,0,0
8743665516,8743664395,4395041,-0.31423253,-0.16459799,0.3181206,nan,0,0
8744665553,8744664432,4395041,-0.30300993,-0.1533754,0.3181206,nan,0,0
8745665528,8745664395,4395041,-0.3029964,-0.14962785,0.31802484,nan,0,0
8746665522,8746664401,4395041,-0.3104847,-0.15337197,0.32242987,nan,0,0
8747665534,8747664395,4395041,-0.30674395,-0.14214963,0.31807274,nan,0,0
8748667577,8748666457,4395041,-0.29926237,-0.16085353,0.31807274,nan,0,0
8749665515,8749664394,4395041,-0.29924905,-0.1458839,0.32233283,nan,0,0
8750665516,8750664395,4395041,-0.2992557,-0.13840576,0.32238135,nan,0,0
8751665530,8751664395,4395041,-0.3142115,-0.16458698,0.317977,nan,0,0
8752665550,8752664398,4395041,-0.2917743,-0.15710923,0.32238135,nan,0,0
8753665516,8753664396,4395041,-0.31047088,-0.16458698,0.32668868,nan,0,0
8754665526,8754664395,4395041,-0.2805522,-0.16459064,0.31802484,nan,0,0
8755665515,8755664394,4395041,-0.29924905,-0.16084637,0.317977,nan,0,0
8756665515,8756664395,4395041,-0.30673027,-0.16458698,0.32233283,nan,0,0
8757665541,8757664395,4395041,-0.31047088,-0.17954943,0.32233283,nan,0,0
8758665516,8758664395,4395041,-0.3142115,-0.15336514,0.32668868,nan,0,0
8759665707,8759664587,4395041,-0.3067234,-0.17206436,0.31357396,nan,0,0
8760665515,8760664395,4395041,-0.32167834,-0.15709873,0.32659042,nan,0,0
8761665515,8761664395,4395041,-0.29550844,-0.1683276,0.32233283,nan,0,0
8762665522,8762664395,4395041,-0.317945,-0.1533617,0.32228434,nan,0,0
8763665515,8763664395,4395041,-0.31045702,-0.15709873,0.32223585,nan,0,0
8764665515,8764664395,4395041,-0.3142115,-0.1683276,0.32233283,nan,0,0
8765665515,8765664395,4395041,-0.30671656,-0.16083917,0.32223585,nan,0,0
8766665556,8766664395,4395041,-0.3067234,-0.1645833,0.32228434,nan,0,0
8767665531,8767664395,4395041,-0.3067234,-0.14214012,0.32228434,nan,0,0
8768665516,8768664395,4395041,-0.28053343,-0.16083917,0.31788132,nan,0,0
8769665515,8769664395,4395041,-0.30297613,-0.1720605,0.32659042,nan,0,0
8770665516,8770664396,4395041,-0.29175478,-0.16832006,0.32223585,nan,0,0
8771665528,8771664404,4395041,-0.3179379,-0.16457961,0.31788132,nan,0,0
8772665515,8772664395,4395041,-0.31045008,-0.1683163,0.31783348,nan,0,0
8773665514,8773664394,4395041,-0.2842612,-0.15335144,0.32213894,nan,0,0
8774665515,8774664395,4395041,-0.3067097,-0.17205667,0.31783348,nan,0,0
8775665556,8775664435,4395041,-0.31792372,-0.15709172,0.3264922,nan,0,0
8776665515,8776664395,4395041,-0.30670288,-0.16457227,0.3177857,nan,0,0
8777665515,8777664395,4395041,-0.29548863,-0.15709522,0.31783348,nan,0,0
8778665515,8778664394,4395041,-0.31043625,-0.16456862,0.32209048,nan,0,0
8779665515,8779664395,4395041,-0.30670288,-0.160832,0.32213894,nan,0,0
8780666218,8780665097,4395041,-0.30668923,-0.15708473,0.31769016,nan,0,0
8781665517,8781664395,4395041,-0.29175478,-0.15709873,0.32223585,nan,0,0
8782665516,8782664395,4395041,-0.3104224,-0.15708122,0.32199362,nan,0,0
8783665529,8783664409,4395041,-0.30294234,-0.16830131,0.32199362,nan,0,0
8784665518,8784664398,4395041,-0.30668238,-0.14960116,0.3263449,nan,0,0
8785665575,8785664454,4395041,-0.2954623,-0.16082124,0.32199362,nan,0,0
8786665524,8786664395,4395041,-0.31414846,-0.15333436,0.32189685,nan,0,0
8787665515,8787664395,4395041,-0.29919568,-0.1645576,0.32194525,nan,0,0
8788665516,8788664395,4395041,-0.29544917,-0.16829382,0.32624683,nan,0,0
8789665516,8789664395,4395041,-0.299189,-0.15707423,0.32189685,nan,0,0
8790665520,8790664399,4395041,-0.29919568,-0.15333778,0.32194525,nan,0,0
8791665516,8791664396,4395041,-0.29544917,-0.17203368,0.32189685,nan,0,0
8792665524,8792664403,4395041,-0.31789538,-0.1645576,0.32194525,nan,0,0
8793665550,8793664395,4395041,-0.28797582,-0.16081768,0.31759465,nan,0,0
8794665516,8794664395,4395041,-0.2917028,-0.15333097,0.32184848,nan,0,0
8795665541,8795664421,4395041,-0.30292216,-0.16081053,0.32184848,nan,0,0
8796665516,8796664395,4395041,-0.2916963,-0.14958785,0.31745148,nan,0,0
8797665515,8797664395,4395041,-0.30664828,-0.15332414,0.3260998,nan,0,0
8798665528,8798664394,4395041,-0.29544258,-0.1645503,0.3174992,nan,0,0
8799665515,8799664395,4395041,-0.29542944,-0.15332414,0.3174038,nan,0,0
8800665602,8800664482,4395041,-0.29168335,-0.17575791,0.3217035,nan,0,0
8801666715,8801665595,4395041,-0.310381,-0.1645393,0.3217035,nan,0,0
8802665515,8802664395,4395041,-0.29168335,-0.15706027,0.31735614,nan,0,0
8803665515,8803664395,4395041,-0.30664146,-0.1495812,0.31735614,nan,0,0
8804665515,8804664395,4395041,-0.3066278,-0.1533139,0.3216069,nan,0,0
8805665521,8805664395,4395041,-0.31036028,-0.16826762,0.3172132,nan,0,0
8806665515,8806664395,4395041,-0.31783885,-0.16078907,0.3215586,nan,0,0
8807665516,8807664395,4395041,-0.29914245,-0.14957123,0.3215586,nan,0,0
8808665515,8808664395,4395041,-0.2991491,-0.15705328,0.31726083,nan,0,0
8809665516,8809664395,4395041,-0.28418532,-0.15331051,0.3215586,nan,0,0
8810665546,8810664426,4395041,-0.29540318,-0.15331051,0.325904,nan,0,0
8811665515,8811664395,4395041,-0.29539663,-0.16826391,0.32151034,nan,0,0
8812665520,8812664400,4395041,-0.28791824,-0.17200309,0.32151034,nan,0,0
8813665542,8813664422,4395041,-0.2991358,-0.18322068,0.3301998,nan,0,0
8814665516,8814664395,4395041,-0.2991358,-0.15330711,0.32151034,nan,0,0
8815665543,8815664422,4395041,-0.3103465,-0.1495646,0.3258061,nan,0,0
8816665516,8816664395,4395041,-0.3103534,-0.1607855,0.32151034,nan,0,0
8817665550,8817664402,4395041,-0.30662102,-0.15331051,0.3215586,nan,0,0
8818665515,8818664395,4395041,-0.31408563,-0.14582548,0.31711796,nan,0,0
8819665515,8819664395,4395041,-0.2991292,-0.15704282,0.3258061,nan,0,0
8820665546,8820664426,4395041,-0.30660057,-0.16825642,0.32141384,nan,0,0
8821665516,8821664395,4395041,-0.32156387,-0.1495646,0.3258061,nan,0,0
8822667207,8822666087,4395041,-0.28790542,-0.14956126,0.31707042,nan,0,0
8823665515,8823664395,4395041,-0.291638,-0.1532969,0.32136557,nan,0,0
8824665520,8824664400,4395041,-0.30285484,-0.1607748,0.3257084,nan,0,0
8825665515,8825664395,4395041,-0.29910925,-0.16824895,0.32131743,nan,0,0
8826665515,8826664395,4395041,-0.30285484,-0.1607748,0.32136557,nan,0,0
8827665526,8827664395,4395041,-0.2916315,-0.14581574,0.32565954,nan,0,0
8828665550,8828664430,4395041,-0.30660057,-0.16451737,0.32141384,nan,0,0
8829665519,8829664398,4395041,-0.3028481,-0.15329348,0.32131743,nan,0,0
8830665515,8830664395,4395041,-0.29537037,-0.16451007,0.32131743,nan,0,0
8831665515,8831664394,4395041,-0.31031212,-0.1607641,0.31688023,nan,0,0
8832665516,8832664395,4395041,-0.2878799,-0.1607641,0.32122105,nan,0,0
8833665514,8833664394,4395041,-0.31032583,-0.16451007,0.3169753,nan,0,0
8834665557,8834664395,4395041,-0.29161862,-0.1570254,0.32556185,nan,0,0
8835665515,8835664395,4395041,-0.29161212,-0.14580606,0.31683266,nan,0,0
8836665533,8836664413,4395041,-0.30282795,-0.16449915,0.31683266,nan,0,0
8837665515,8837664395,4395041,-0.29908934,-0.16076054,0.31683266,nan,0,0
8838665515,8838664395,4395041,-0.29535073,-0.1532833,0.3298532,nan,0,0
8839665516,8839664395,4395041,-0.2990761,-0.16449186,0.32107657,nan,0,0
8840665515,8840664395,4395041,-0.3103052,-0.13832882,0.32117286,nan,0,0
8841665550,8841664430,4395041,-0.28786078,-0.15701497,0.3167377,nan,0,0
8842665516,8842664395,4395041,-0.30283472,-0.1532867,0.32122105,nan,0,0
8843665515,8843664395,4395041,-0.2953442,-0.1420643,0.3167852,nan,0,0
8844665515,8844664395,4395041,-0.27665764,-0.15702191,0.31683266,nan,0,0
8845665517,8845664396,4395041,-0.28786078,-0.16075341,0.32107657,nan,0,0
8846665515,8846664395,4395041,-0.2915992,-0.15327652,0.32541546,nan,0,0
8847665526,8847664395,4395041,-0.2990761,-0.15701497,0.3167377,nan,0,0
8848665597,8848664396,4395041,-0.32525247,-0.14954138,0.32112473,nan,0,0
8849665515,8849664395,4395041,-0.31402993,-0.15701497,0.32107657,nan,0,0
8850665516,8850664395,4395041,-0.3065462,-0.16822658,0.32536668,nan,0,0
8851665518,8851664397,4395041,-0.29533112,-0.1532731,0.32102844,nan,0,0
8852665515,8852664395,4395041,-0.29533112,-0.16448821,0.32102844,nan,0,0
8853665515,8853664395,4395041,-0.3065462,-0.17196497,0.31669024,nan,0,0
8854665906,8854664786,4395041,-0.2915992,-0.16449186,0.32107657,nan,0,0
8855665541,8855664421,4395041,-0.31029835,-0.16075699,0.3167852,nan,0,0
8856665516,8856664395,4395041,-0.30280787,-0.16448821,0.32102844,nan,0,0
8857665515,8857664395,4395041,-0.28785437,-0.15701148,0.32102844,nan,0,0
8858665515,8858664394,4395041,-0.2990761,-0.15327652,0.32107657,nan,0,0
8859665514,8859664394,4395041,-0.2990629,-0.14579315,0.3296555,nan,0,0
8860665531,8860664395,4395041,-0.30280787,-0.16822658,0.32102844,nan,0,0
8861665516,8861664395,4395041,-0.2953573,-0.14954801,0.32122105,nan,0,0
8862665515,8862664394,4395041,-0.31401604,-0.14953145,0.32098034,nan,0,0
8863665516,8863664395,4395041,-0.29157984,-0.15700454,0.32093227,nan,0,0
8864665514,8864664394,4395041,-0.29531807,-0.16074273,0.31659532,nan,0,0
8865665525,8865664395,4395041,-0.30653265,-0.15326633,0.32526916,nan,0,0
8866665515,8866664395,4395041,-0.31026402,-0.14952482,0.32088417,nan,0,0
8867665558,8867664395,4395041,-0.31400907,-0.15326633,0.31659532,nan,0,0
8868665515,8868664395,4395041,-0.3028012,-0.16448459,0.32098034,nan,0,0
8869665515,8869664395,4395041,-0.29531154,-0.14578672,0.32088417,nan,0,0
8870665515,8870664395,4395041,-0.29904965,-0.14952482,0.3165479,nan,0,0
8871665515,8871664395,4395041,-0.31400216,-0.15326294,0.32088417,nan,0,0
8872665565,8872664406,4395041,-0.31025714,-0.17568779,0.31650048,nan,0,0
8873665515,8873664395,4395041,-0.29531154,-0.15700108,0.32522044,nan,0,0
8874665515,8874664395,4395041,-0.3065123,-0.15325615,0.3164531,nan,0,0
8875666410,8875665290,4395041,-0.29904303,-0.15325955,0.3208361,nan,0,0
8876665555,8876664435,4395041,-0.3065259,-0.14578672,0.32088417,nan,0,0
8877665515,8877664395,4395041,-0.28784165,-0.16821915,0.32093227,nan,0,0
8878665515,8878664395,4395041,-0.29530498,-0.17568779,0.31650048,nan,0,0
8879665522,8879664395,4395041,-0.31026402,-0.1644773,0.32522044,nan,0,0
8880665515,8880664395,4395041,-0.3065191,-0.14952151,0.32517174,nan,0,0
8881665516,8881664395,4395041,-0.3065191,-0.14204544,0.32517174,nan,0,0
8882665516,8882664395,4395041,-0.30277434,-0.1495182,0.325123,nan,0,0
8883665551,8883664396,4395041,-0.3065123,-0.17194593,0.3207881,nan,0,0
8884665516,8884664395,4395041,-0.3065123,-0.15325615,0.3207881,nan,0,0
8885665515,8885664395,4395041,-0.30277434,-0.17194593,0.3207881,nan,0,0
8886665518,8886664398,4395041,-0.30277434,-0.16073208,0.329458,nan,0,0
8887665515,8887664395,4395041,-0.29529193,-0.16072851,0.32074004,nan,0,0
8888665516,8888664395,4395041,-0.29528537,-0.16446273,0.32502568,nan,0,0
8889665515,8889664395,4395041,-0.3102434,-0.16072851,0.32507434,nan,0,0
8890665515,8890664395,4395041,-0.2803342,-0.15698716,0.32502568,nan,0,0
8891665519,8891664395,4395041,-0.2990298,-0.16072851,0.32074004,nan,0,0
8892665515,8892664395,4395041,-0.29902315,-0.16820052,0.32502568,nan,0,0
8893665555,8893664434,4395041,-0.3027543,-0.153246,0.32064396,nan,0,0
8894665515,8894664395,4395041,-0.3027543,-0.1569837,0.31197792,nan,0,0
8895665515,8895664395,4395041,-0.29154116,-0.16445912,0.32497698,nan,0,0
8896666907,8896665786,4395041,-0.31022283,-0.17193073,0.320596,nan,0,0
8897665516,8897664395,4395041,-0.3027543,-0.1495083,0.31631094,nan,0,0
8898665541,8898664395,4395041,-0.31770512,-0.1569837,0.32064396,nan,0,0
8899665521,8899664400,4395041,-0.31022283,-0.17566834,0.320596,nan,0,0
8900665515,8900664394,4395041,-0.2990166,-0.14577058,0.32064396,nan,0,0
8901665515,8901664395,4395041,-0.29528537,-0.142036,0.320692,nan,0,0
8902665525,8902664405,4395041,-0.28780347,-0.1569837,0.32064396,nan,0,0
8903665515,8903664394,4395041,-0.29154116,-0.1495083,0.32064396,nan,0,0
8904665515,8904664395,4395041,-0.28780347,-0.1607214,0.32497698,nan,0,0
8905665516,8905664395,4395041,-0.29526585,-0.1495017,0.320548,nan,0,0
8906665517,8906664395,4395041,-0.3176981,-0.16445549,0.320596,nan,0,0
8907665514,8907664394,4395041,-0.2915347,-0.17193073,0.3249284,nan,0,0
8908665515,8908664395,4395041,-0.3176911,-0.15697677,0.3248797,nan,0,0
8909665515,8909664395,4395041,-0.31022283,-0.14950499,0.320596,nan,0,0
8910665515,8910664395,4395041,-0.29527888,-0.16445912,0.32064396,nan,0,0
8911665515,8911664395,4395041,-0.2915347,-0.16445549,0.31626362,nan,0,0
8912665516,8912664395,4395041,-0.30647844,-0.15323922,0.320548,nan,0,0
8913665515,8913664395,4395041,-0.2877844,-0.15323585,0.32050008,nan,0,0
8914665515,8914664394,4395041,-0.30274758,-0.16445549,0.320596,nan,0,0
8915665516,8915664395,4395041,-0.2990034,-0.13828906,0.31621626,nan,0,0
8916665515,8916664395,4395041,-0.30273423,-0.14576092,0.32050008,nan,0,0
8917667407,8917666287,4395041,-0.2989902,-0.14575772,0.32045212,nan,0,0
8918665516,8918664395,4395041,-0.29152185,-0.17192313,0.32050008,nan,0,0
8919665517,8919664395,4395041,-0.31020916,-0.15323585,0.32483116,nan,0,0
8920665515,8920664394,4395041,-0.31020233,-0.13828297,0.32478252,nan,0,0
8921665517,8921664397,4395041,-0.31394663,-0.14949839,0.32050008,nan,0,0
8922665515,8922664395,4395041,-0.29150897,-0.16444096,0.3204042,nan,0,0
8923665515,8923664395,4395041,-0.31020233,-0.15696985,0.31612167,nan,0,0
8924665544,8924664395,4395041,-0.31767005,-0.15696637,0.324734,nan,0,0
8925665515,8925664395,4395041,-0.29523978,-0.17191178,0.32035625,nan,0,0
8926665516,8926664395,4395041,-0.29523328,-0.15695946,0.31597984,nan,0,0
8927665516,8927664394,4395041,-0.2989704,-0.15322232,0.31597984,nan,0,0
8928665624,8928664504,4395041,-0.31393275,-0.16444096,0.324734,nan,0,0
8929665515,8929664395,4395041,-0.29899678,-0.14949839,0.32483116,nan,0,0
8930665515,8930664394,4395041,-0.2989704,-0.16443372,0.32463685,nan,0,0
8931665515,8931664395,4395041,-0.30270752,-0.17938225,0.32463685,nan,0,0
8932665520,8932664394,4395041,-0.29523328,-0.15695946,0.32030833,nan,0,0
8933665515,8933664395,4395041,-0.2914833,-0.14947863,0.32453975,nan,0,0
8934665515,8934664395,4395041,-0.3064379,-0.16069305,0.32026047,nan,0,0
8935665524,8935664403,4395041,-0.2952203,-0.15695255,0.32453975,nan,0,0
8936665515,8936664395,4395041,-0.2914833,-0.17190042,0.31588537,nan,0,0
8937665515,8937664395,4395041,-0.30268753,-0.14573844,0.3288178,nan,0,0
8938665515,8938664395,4395041,-0.29895726,-0.14947863,0.31588537,nan,0,0
8939665515,8939664395,4395041,-0.28399685,-0.17189284,0.32011688,nan,0,0
8940665557,8940664395,4395041,-0.3064244,-0.17189662,0.3115116,nan,0,0
8941665515,8941664394,4395041,-0.29895726,-0.15695255,0.32453975,nan,0,0
8942665515,8942664395,4395041,-0.29894406,-0.14947203,0.32444277,nan,0,0
8943665516,8943664395,4395041,-0.30268753,-0.15694909,0.3288178,nan,0,0
8944665515,8944664394,4395041,-0.30268088,-0.16068242,0.32444277,nan,0,0
8945665518,8945664398,4395041,-0.29894406,-0.16815603,0.32876867,nan,0,0
8946665515,8946664395,4395041,-0.29520077,-0.14573202,0.32871956,nan,0,0
8947665535,8947664395,4395041,-0.3026742,-0.16441563,0.32871956,nan,0,0
8948665515,8948664394,4395041,-0.31015447,-0.16441923,0.32444277,nan,0,0
8949666107,8949664986,4395041,-0.30640417,-0.14946546,0.3243458,nan,0,0
8950665538,8950664395,4395041,-0.30640417,-0.16814862,0.3243458,nan,0,0
8951665515,8951664395,4395041,-0.29520077,-0.16815233,0.3243943,nan,0,0
8952665515,8952664395,4395041,-0.31014764,-0.17188905,0.32006904,nan,0,0
8953665515,8953664395,4395041,-0.287721,-0.16441199,0.3200212,nan,0,0
8954665515,8954664395,4395041,-0.3026742,-0.16441563,0.3243943,nan,0,0
8955665515,8955664395,4395041,-0.29894406,-0.15320884,0.32444277,nan,0,0
8956615542,8956614421,4395041,-0.2989375,-0.15320545,0.3243943,nan,0,0
8957665516,8957664395,4395041,-0.29145762,-0.16067535,0.3243458,nan,0,0
8958665515,8958664395,4395041,-0.3064109,-0.15320545,0.32006904,nan,0,0
8959665556,8959664436,4395041,-0.29146403,-0.15694217,0.32006904,nan,0,0
8960665526,8960664405,4395041,-0.29145122,-0.16440837,0.32429737,nan,0,0
8961665515,8961664394,4395041,-0.31012717,-0.15693182,0.31992558,nan,0,0
8962665524,8962664395,4395041,-0.31387055,-0.14572561,0.32429737,nan,0,0
8963665516,8963664395,4395041,-0.3176071,-0.14572561,0.3199734,nan,0,0
8964665515,8964664395,4395041,-0.29144478,-0.1606683,0.31992558,nan,0,0
8965665519,8965664398,4395041,-0.31387743,-0.14572881,0.3243458,nan,0,0
8966665515,8966664395,4395041,-0.30639067,-0.16440475,0.31992558,nan,0,0
8967665515,8967664395,4395041,-0.31387055,-0.14198905,0.3199734,nan,0,0
8968665515,8968664395,4395041,-0.30638394,-0.16066475,0.33284587,nan,0,0
8969665526,8969664405,4395041,-0.29891115,-0.14945558,0.31987783,nan,0,0
8970666671,8970665549,4395041,-0.291432,-0.17187016,0.31983006,nan,0,0
8971665549,8971664395,4395041,-0.3101203,-0.16066475,0.3242005,nan,0,0
8972665516,8972664394,4395041,-0.2989046,-0.16066122,0.32415205,nan,0,0
8973665516,8973664395,4395041,-0.30264091,-0.1531886,0.31983006,nan,0,0
8974665515,8974664395,4395041,-0.28768936,-0.16439392,0.32410374,nan,0,0
8975665516,8975664395,4395041,-0.28768936,-0.15318523,0.32410374,nan,0,0
8976665515,8976664395,4395041,-0.29142556,-0.16065769,0.31978232,nan,0,0
8977665535,8977664413,4395041,-0.2839656,-0.17187391,0.31987783,nan,0,0
8978665515,8978664395,4395041,-0.32131538,-0.16065769,0.32410374,nan,0,0
8979665535,8979664395,4395041,-0.31384292,-0.16065769,0.31978232,nan,0,0
8980665515,8980664395,4395041,-0.29516178,-0.16439392,0.3284251,nan,0,0
8981665515,8981664394,4395041,-0.30637047,-0.16065769,0.3284251,nan,0,0
8982665515,8982664395,4395041,-0.29889145,-0.16439031,0.31973457,nan,0,0
8983665516,8983664396,4395041,-0.3101067,-0.16065769,0.31978232,nan,0,0
8984665515,8984664395,4395041,-0.3100999,-0.14197345,0.31973457,nan,0,0
8985665515,8985664395,4395041,-0.3100999,-0.15691802,0.32405528,nan,0,0
8986665517,8986664395,4395041,-0.30262095,-0.15317851,0.3196869,nan,0,0
8987665515,8987664395,4395041,-0.31382912,-0.15317851,0.32400694,nan,0,0
8988665519,8988664395,4395041,-0.3100999,-0.15691802,0.32405528,nan,0,0
8989665515,8989664395,4395041,-0.3026143,-0.17185505,0.3153197,nan,0,0
8990665520,8990664399,4395041,-0.2839344,-0.16811906,0.32395858,nan,0,0
8991667137,8991666017,4395041,-0.31382224,-0.16064711,0.32395858,nan,0,0
8992665552,8992664395,4395041,-0.29514235,-0.14943916,0.31963915,nan,0,0
8993665515,8993664395,4395041,-0.3063503,-0.14570318,0.32395858,nan,0,0
8994665515,8994664395,4395041,-0.31382224,-0.15691112,0.32395858,nan,0,0
8995665525,8995664395,4395041,-0.29888487,-0.1718588,0.3196869,nan,0,0
8996665514,8996664394,4395041,-0.29139996,-0.1344923,0.32391024,nan,0,0
8997665552,8997664431,4395041,-0.30260766,-0.16064358,0.31527266,nan,0,0
8998665515,8998664395,4395041,-0.31380847,-0.16437587,0.31954378,nan,0,0
8999665515,8999664394,4395041,-0.32127306,-0.1569008,0.32813114,nan,0,0
9000665531,9000664411,4395041,-0.3063301,-0.1569008,0.3194961,nan,0,0
9001665514,9001664395,4395041,-0.3175443,-0.16437587,0.32818007,nan,0,0
9002665542,9002664394,4395041,-0.31006587,-0.16437227,0.3194961,nan,0,0
9003665515,9003664395,4395041,-0.30260104,-0.15690424,0.31954378,nan,0,0
9004665545,9004664424,4395041,-0.28391573,-0.1569008,0.3151786,nan,0,0
9005665515,9005664394,4395041,-0.28390947,-0.15316169,0.32376534,nan,0,0
9006665515,9006664395,4395041,-0.2988783,-0.15691112,0.32395858,nan,0,0
9007665525,9007664395,4395041,-0.29510996,-0.1568939,0.32371706,nan,0,0
9008665515,9008664395,4395041,-0.2988521,-0.13821909,0.32376534,nan,0,0
9009665516,9009664395,4395041,-0.3138016,-0.15316506,0.32381362,nan,0,0
9010665515,9010664395,4395041,-0.30631664,-0.15315832,0.32371706,nan,0,0
9011665515,9011664394,4395041,-0.298839,-0.16062595,0.31935322,nan,0,0
9012665515,9012664395,4395041,-0.2988455,-0.1568939,0.32371706,nan,0,0
9013665516,9013664395,4395041,-0.3025811,-0.14942275,0.31940082,nan,0,0
9014665515,9014664395,4395041,-0.28763252,-0.16436145,0.32366878,nan,0,0
9015665515,9015664394,4395041,-0.29136163,-0.16809323,0.3193056,nan,0,0
9016665515,9016664395,4395041,-0.28762624,-0.16062245,0.3193056,nan,0,0
9017665515,9017664395,4395041,-0.2913808,-0.15316169,0.32376534,nan,0,0
9018665515,9018664395,4395041,-0.2838908,-0.15688702,0.3193056,nan,0,0
9019665515,9019664395,4395041,-0.291368,-0.16809694,0.32366878,nan,0,0
9020665515,9020664395,4395041,-0.3025745,-0.16062595,0.32366878,nan,0,0
9021665515,9021664395,4395041,-0.29136163,-0.16435783,0.3193056,nan,0,0
9022665515,9022664395,4395041,-0.298839,-0.17556791,0.3279844,nan,0,0
9023665844,9023664723,4395041,-0.2838908,-0.16435783,0.3279355,nan,0,0
9024665519,9024664396,4395041,-0.2951035,-0.17183243,0.32366878,nan,0,0
9025665515,9025664395,4395041,-0.30629653,-0.16435422,0.319258,nan,0,0
9026665515,9026664395,4395041,-0.30629653,-0.16435422,0.3235723,nan,0,0
9027665515,9027664395,4395041,-0.29135522,-0.16435422,0.3235723,nan,0,0
9028665516,9028664395,4395041,-0.29882586,-0.16808955,0.3235723,nan,0,0
9029665538,9029664395,4395041,-0.30628312,-0.16061187,0.31916288,nan,0,0
9030665516,9030664395,4395041,-0.29134247,-0.16808219,0.31916288,nan,0,0
9031665515,9031664395,4395041,-0.30628982,-0.1419392,0.3235241,nan,0,0
9032665515,9032664395,4395041,-0.30254793,-0.14193606,0.3277889,nan,0,0
9033665561,9033664441,4395041,-0.3137603,-0.15314491,0.3148968,nan,0,0
9034665516,9034664395,4395041,-0.30628982,-0.1419392,0.3235241,nan,0,0
9035665515,9035664395,4395041,-0.30628312,-0.14940639,0.3277889,nan,0,0
9036665517,9036664395,4395041,-0.31001827,-0.17181736,0.32347587,nan,0,0
9037665530,9037664395,4395041,-0.31375343,-0.16808219,0.32347587,nan,0,0
9038665516,9038664395,4395041,-0.30254138,-0.15313822,0.32342765,nan,0,0
9039665516,9039664395,4395041,-0.3100115,-0.16060838,0.31911528,nan,0,0
9040665516,9040664396,4395041,-0.31375343,-0.16061187,0.3277889,nan,0,0
9041665516,9041664395,4395041,-0.31002507,-0.16435064,0.3235241,nan,0,0
9042665515,9042664395,4395041,-0.32869408,-0.16061187,0.31916288,nan,0,0
9043665559,9043664432,4395041,-0.3137466,-0.16060838,0.32774,nan,0,0
9044666307,9044665187,4395041,-0.30254793,-0.16808219,0.31916288,nan,0,0
9045665548,9045664395,4395041,-0.28014314,-0.16808587,0.3235241,nan,0,0
9046665515,9046664395,4395041,-0.29881278,-0.16808219,0.31916288,nan,0,0
9047665515,9047664395,4395041,-0.29134247,-0.15314156,0.32347587,nan,0,0
9048665515,9048664395,4395041,-0.3100115,-0.14940314,0.32342765,nan,0,0
9049665515,9049664394,4395041,-0.3100047,-0.16807485,0.32337952,nan,0,0
9050665516,9050664395,4395041,-0.3174747,-0.16433984,0.32337952,nan,0,0
9051665522,9051664401,4395041,-0.30254793,-0.17181736,0.32347587,nan,0,0
9052665515,9052664395,4395041,-0.30252808,-0.15686642,0.32333133,nan,0,0
9053665526,9053664395,4395041,-0.306263,-0.15686642,0.31902024,nan,0,0
9054665516,9054664395,4395041,-0.29134247,-0.14567123,0.32347587,nan,0,0
9055665515,9055664395,4395041,-0.3062697,-0.15686986,0.3190678,nan,0,0
9056665516,9056664395,4395041,-0.30254138,-0.16807853,0.32774,nan,0,0
9057665534,9057664414,4395041,-0.3062697,-0.16433984,0.31475607,nan,0,0
9058665515,9058664395,4395041,-0.31373972,-0.15686986,0.32769126,nan,0,0
9059665521,9059664395,4395041,-0.29507118,-0.16434345,0.32342765,nan,0,0
9060665515,9060664395,4395041,-0.29879972,-0.17180984,0.3190678,nan,0,0
9061665515,9061664394,4395041,-0.29879317,-0.16433623,0.31902024,nan,0,0
9062665514,9062664394,4395041,-0.3174608,-0.15312816,0.3232832,nan,0,0
9063665515,9063664395,4395041,-0.27264878,-0.16060133,0.32764238,nan,0,0
9064665515,9064664395,4395041,-0.31373972,-0.16060485,0.3190678,nan,0,0
9065666828,9065665688,4395041,-0.30252808,-0.14939658,0.31902024,nan,0,0
9066665515,9066664395,4395041,-0.30252808,-0.16060133,0.31902024,nan,0,0
9067665555,9067664435,4395041,-0.306263,-0.15686642,0.32333133,nan,0,0
9068665515,9068664395,4395041,-0.29134247,-0.15314156,0.3277889,nan,0,0
9069665515,9069664395,4395041,-0.30999792,-0.17180607,0.31902024,nan,0,0
9070665516,9070664395,4395041,-0.28011858,-0.1531315,0.32333133,nan,0,0
9071665527,9071664406,4395041,-0.30999115,-0.17180233,0.3146623,nan,0,0
9072665524,9072664405,4395041,-0.30251488,-0.15312481,0.32323503,nan,0,0
9073665515,9073664395,4395041,-0.3025215,-0.16806749,0.3232832,nan,0,0
9074665550,9074664395,4395041,-0.30251488,-0.16806383,0.32323503,nan,0,0
9075665515,9075664395,4395041,-0.32119566,-0.1456585,0.32759365,nan,0,0
9076665519,9076664399,4395041,-0.30251488,-0.15312481,0.32754487,nan,0,0
9077665518,9077664396,4395041,-0.313726,-0.156863,0.3232832,nan,0,0
9078665556,9078664435,4395041,-0.3099776,-0.16806015,0.32318693,nan,0,0
9079665515,9079664395,4395041,-0.30250165,-0.1568527,0.3231388,nan,0,0
9080665515,9080664395,4395041,-0.3137054,-0.16058728,0.31883028,nan,0,0
9081665515,9081664395,4395041,-0.30251488,-0.14565532,0.32754487,nan,0,0
9082665515,9082664395,4395041,-0.3137054,-0.16805646,0.31883028,nan,0,0
9083665515,9083664395,4395041,-0.29876056,-0.1680528,0.31878287,nan,0,0
9084665515,9084664395,4395041,-0.30623624,-0.1568527,0.3231388,nan,0,0
9085665515,9085664395,4395041,-0.2950389,-0.15312147,0.3188778,nan,0,0
9086667317,9086666197,4395041,-0.29129153,-0.16431831,0.32309073,nan,0,0
9087665525,9087664395,4395041,-0.29502603,-0.1680528,0.32309073,nan,0,0
9088665515,9088664395,4395041,-0.30995727,-0.17178354,0.31873542,nan,0,0
9089665514,9089664394,4395041,-0.30248183,-0.14190505,0.32299456,nan,0,0
9090665515,9090664395,4395041,-0.28754446,-0.16057678,0.31868798,nan,0,0
9091665516,9091664396,4395041,-0.30248183,-0.15684243,0.3143814,nan,0,0
9092665515,9092664395,4395041,-0.3062095,-0.15683901,0.32294655,nan,0,0
9093665516,9093664395,4395041,-0.29874098,-0.16057327,0.3186406,nan,0,0
9094665538,9094664398,4395041,-0.3062028,-0.16056976,0.3272038,nan,0,0
9095665515,9095664395,4395041,-0.29500026,-0.16430394,0.3228985,nan,0,0
9096665519,9096664399,4395041,-0.3062095,-0.16057327,0.3186406,nan,0,0
9097665514,9097664394,4395041,-0.28754446,-0.14937374,0.32299456,nan,0,0
9098665528,9098664408,4395041,-0.29873446,-0.16430394,0.3228985,nan,0,0
9099665515,9099664395,4395041,-0.30618945,-0.14936072,0.32280248,nan,0,0
9100665515,9100664395,4395041,-0.30993024,-0.14936396,0.3228505,nan,0,0
9101665517,9101664396,4395041,-0.30993024,-0.16056627,0.32715514,nan,0,0
9102665524,9102664403,4395041,-0.3062028,-0.14936723,0.3228985,nan,0,0
9103665518,9103664395,4395041,-0.3136575,-0.16803081,0.33141056,nan,0,0
9104665517,9104664395,4395041,-0.2912407,-0.16428962,0.3227065,nan,0,0
9105665516,9105664395,4395041,-0.29125974,-0.15309806,0.32715514,nan,0,0
9106665516,9106664395,4395041,-0.3099167,-0.16429321,0.32705787,nan,0,0
9107665538,9107664418,4395041,-0.28378534,-0.15309472,0.32280248,nan,0,0
9108665515,9108664395,4395041,-0.31364384,-0.16802348,0.33131197,nan,0,0
9109665541,9109664420,4395041,-0.30245543,-0.16803081,0.32280248,nan,0,0
9110665515,9110664395,4395041,-0.2987084,-0.16055578,0.31840372,nan,0,0
9111665516,9111664395,4395041,-0.3099167,-0.16429321,0.32275447,nan,0,0
9112665515,9112664395,4395041,-0.2912407,-0.15308806,0.3227065,nan,0,0
9113665515,9113664395,4395041,-0.3061828,-0.1530914,0.32275447,nan,0,0
9114665515,9114664395,4395041,-0.29123434,-0.15681848,0.32265857,nan,0,0
9115665528,9115664395,4395041,-0.31365067,-0.14935745,0.32275447,nan,0,0
9116665515,9116664394,4395041,-0.3099032,-0.16428603,0.32265857,nan,0,0
9117665525,9117664395,4395041,-0.31365067,-0.16055927,0.32275447,nan,0,0
9118666011,9118664891,4395041,-0.30990997,-0.15682192,0.32700923,nan,0,0
9119665516,9119664395,4395041,-0.2949681,-0.1680198,0.32265857,nan,0,0
9120665515,9120664395,4395041,-0.30244225,-0.16428962,0.31840372,nan,0,0
9121665530,9121664409,4395041,-0.30243567,-0.1680198,0.31835642,nan,0,0
9122665515,9122664395,4395041,-0.29868886,-0.14934443,0.32256266,nan,0,0
9123665523,9123664397,4395041,-0.30242905,-0.14934768,0.32691205,nan,0,0
9124665515,9124664395,4395041,-0.30616942,-0.16055225,0.32696068,nan,0,0
9125665515,9125664395,4395041,-0.30616942,-0.15308471,0.32265857,nan,0,0
9126665515,9126664395,4395041,-0.29496166,-0.16054876,0.3226106,nan,0,0
9127665550,9127664395,4395041,-0.2874943,-0.15681507,0.32691205,nan,0,0
9128665515,9128664395,4395041,-0.31363696,-0.16055225,0.32696068,nan,0,0
9129665523,9129664403,4395041,-0.31364384,-0.17922504,0.31840372,nan,0,0
9130665522,9130664395,4395041,-0.5003475,-0.2576416,0.17213573,nan,0,0
9131665524,9131664404,4395041,-0.52643913,-0.19788137,0.17203341,nan,0,0
9132665533,9132664412,4395041,-0.47045547,-0.22402641,0.1806888,nan,0,0
9133665515,9133664395,4395041,-0.4816568,-0.2538966,0.1849909,nan,0,0
9134665515,9134664394,4395041,-0.44802353,-0.22027823,0.18490845,nan,0,0
9135665515,9135664395,4395041,-0.5264506,-0.2874943,0.17205898,nan,0,0
9136665515,9136664395,4395041,-0.53765166,-0.24268998,0.16775748,nan,0,0
9137665515,9137664394,4395041,-0.5227169,-0.2837606,0.16345602,nan,0,0
9138665551,9138664394,4395041,-0.489103,-0.20534858,0.20213927,nan,0,0
9139666512,9139665391,4395041,-0.4555005,-0.19788137,0.19783844,nan,0,0
9140665545,9140664425,4395041,-0.4629879,-0.19415623,0.16348034,nan,0,0
9141665515,9141664395,4395041,-0.47044522,-0.22028783,0.19356634,nan,0,0
9142665558,9142664406,4395041,-0.5003256,-0.25763035,0.1849909,nan,0,0
9143665515,9143664394,4395041,-0.47793347,-0.2501683,0.19362389,nan,0,0
9144665527,9144664407,4395041,-0.45926416,-0.22776516,0.17641288,nan,0,0
9145665521,9145664395,4395041,-0.5153169,-0.22405083,0.14638066,nan,0,0
9146665515,9146664395,4395041,-0.4966352,-0.23524825,0.20231964,nan,0,0
9147665515,9147664395,4395041,-0.5302421,-0.23151414,0.18510096,nan,0,0
9148665515,9148664395,4395041,-0.4854329,-0.22404596,0.18510096,nan,0,0
9149665550,9149664395,4395041,-0.5228081,-0.23526365,0.16795719,nan,0,0
9150665515,9150664395,4395041,-0.55641717,-0.23526365,0.14642422,nan,0,0
9151665530,9151664410,4395041,-0.47801688,-0.18672535,0.22400957,nan,0,0
9152665516,9152664395,4395041,-0.5228081,-0.22406061,0.1550374,nan,0,0
9153665549,9153664424,4395041,-0.552707,-0.2688845,0.13785204,nan,0,0
9154665516,9154664395,4395041,-0.46308893,-0.24274823,0.16372368,nan,0,0
9155665515,9155664395,4395041,-0.52658844,-0.23528421,0.14220226,nan,0,0
9156665514,9156664394,4395041,-0.5527432,-0.23528934,0.14222342,nan,0,0
9157665515,9157664395,4395041,-0.50047857,-0.24276945,0.15519904,nan,0,0
9158665515,9158664395,4395041,-0.50421345,-0.22409488,0.16382119,nan,0,0
9159665515,9159664395,4395041,-0.4295246,-0.13072488,0.25008017,nan,0,0
9160667045,9160665924,4395041,-0.28014314,-0.20917355,0.4443064,nan,0,0
9161665527,9161664395,4395041,-0.22784975,-0.19423257,0.46156105,nan,0,0
9162665550,9162664429,4395041,-0.4781214,-0.22785473,0.22002918,nan,0,0
9163665516,9163664395,4395041,-0.4818884,-0.26148984,0.17696533,nan,0,0
9164665516,9164664395,4395041,-0.56035995,-0.25029412,0.12952545,nan,0,0
9165665515,9165664395,4395041,-0.5603723,-0.25029963,0.15545373,nan,0,0
9166665515,9166664395,4395041,-0.5566609,-0.26151854,0.14254178,nan,0,0
9167665546,9167664395,4395041,-0.56790626,-0.27274445,0.120998725,nan,0,0
9168665515,9168664395,4395041,-0.56044614,-0.23165107,0.13398285,nan,0,0
9169665585,9169664438,4395041,-0.5604584,-0.23912893,0.15129358,nan,0,0
9170665515,9170664394,4395041,-0.56421965,-0.26529533,0.14269085,nan,0,0
9171665515,9171664394,4395041,-0.5604831,-0.2503491,0.1340429,nan,0,0
9172665515,9172664396,4395041,-0.5418123,-0.2167249,0.14703676,nan,0,0
9173665515,9173664395,4395041,-0.54183614,-0.25783926,0.14275482,nan,0,0
9174665519,9174664395,4395041,-0.53815854,-0.25039324,0.13420328,nan,0,0
9175665515,9175664395,4395041,-0.4708784,-0.2130164,0.24239549,nan,0,0
9176665536,9176664416,4395041,-0.37746677,-0.2018139,0.22947867,nan,0,0
9177665515,9177664395,4395041,-0.5307076,-0.22050527,0.16455647,nan,0,0
9178665516,9178664395,4395041,-0.57931906,-0.28031567,0.13428363,nan,0,0
9179665516,9179664395,4395041,-0.51952976,-0.19061886,0.15596563,nan,0,0
9180665532,9180664394,4395041,-0.497137,-0.2280102,0.16037002,nan,0,0
9181667507,9181666386,4395041,-0.50465745,-0.21681578,0.17347689,nan,0,0
9182665515,9182664395,4395041,-0.50465745,-0.26915064,0.16046613,nan,0,0
9183665525,9183664405,4395041,-0.51214516,-0.23177373,0.15181503,nan,0,0
9184665515,9184664395,4395041,-0.5196563,-0.25422034,0.1518833,nan,0,0
9185665533,9185664413,4395041,-0.523418,-0.2056285,0.15192887,nan,0,0
9186665515,9186664395,4395041,-0.49725813,-0.20563306,0.16931754,nan,0,0
9187665531,9187664395,4395041,-0.5645813,-0.2542485,0.14765446,nan,0,0
9188665522,9188664396,4395041,-0.49359602,-0.23931928,0.16514948,nan,0,0
9189665515,9189664395,4395041,-0.50855345,-0.21688311,0.15211137,nan,0,0
9190665516,9190664396,4395041,-0.5085874,-0.24307485,0.1739199,nan,0,0
9191665516,9191664395,4395041,-0.53852826,-0.22812656,0.15222564,nan,0,0
9192665769,9192664649,4395041,-0.42634434,-0.25805053,0.24359761,nan,0,0
9193665515,9193664395,4395041,-0.48621467,-0.20944631,0.16972488,nan,0,0
9194665516,9194664395,4395041,-0.37027937,-0.1795294,0.27856472,nan,0,0
9195665516,9195664395,4395041,-0.44511306,-0.1795414,0.23514509,nan,0,0
9196665515,9196664395,4395041,-0.45260406,-0.16832381,0.2046941,nan,0,0
9197665529,9197664397,4395041,-0.46012622,-0.18704316,0.2091752,nan,0,0
9198665556,9198664395,4395041,-0.48258215,-0.21323396,0.19613129,nan,0,0
9199665516,9199664395,4395041,-0.49382704,-0.2431724,0.17439142,nan,0,0
9200665540,9200664419,4395041,-0.3516883,-0.2132578,0.32277003,nan,0,0
9201665515,9201664395,4395041,-0.47891617,-0.20952582,0.16579673,nan,0,0
9202665522,9202664395,4395041,-0.5275797,-0.22824371,0.17021112,nan,0,0
9203665516,9203664395,4395041,-0.51264733,-0.2095493,0.17028815,nan,0,0
9204665515,9204664394,4395041,-0.48271173,-0.21329124,0.17902085,nan,0,0
9205665535,9205664414,4395041,-0.52018964,-0.21705754,0.17915599,nan,0,0
9206665516,9206664395,4395041,-0.40045172,-0.18712698,0.25351673,nan,0,0
9207665515,9207664395,4395041,-0.5538959,-0.2170673,0.17483911,nan,0,0
9208665516,9208664396,4395041,-0.4603841,-0.22083463,0.18809408,nan,0,0
9209665515,9209664395,4395041,-0.49032775,-0.23206352,0.17497125,nan,0,0
9210665525,9210664403,4395041,-0.49033886,-0.23206876,0.19249745,nan,0,0
9211665517,9211664395,4395041,-0.48289618,-0.2433198,0.20574667,nan,0,0
9212665515,9212664394,4395041,-0.4866835,-0.19841711,0.17520954,nan,0,0
9213666219,9213665099,4395041,-0.5166682,-0.26582205,0.1577602,nan,0,0
9214665516,9214664395,4395041,-0.49047148,-0.2433637,0.16654989,nan,0,0
9215665515,9215664395,4395041,-0.49047148,-0.2358756,0.17531568,nan,0,0
9216665517,9216664395,4395041,-0.47551668,-0.23588625,0.17098457,nan,0,0
9217665515,9217664395,4395041,-0.49801582,-0.19845743,0.15790364,nan,0,0
9218665515,9218664395,4395041,-0.5279956,-0.20970038,0.15356398,nan,0,0
9219665515,9219664395,4395041,-0.47558123,-0.1984709,0.16675188,nan,0,0
9220665515,9220664395,4395041,-0.52052987,-0.18724096,0.18872152,nan,0,0
9221665554,9221664433,4395041,-0.46813414,-0.20597903,0.18441653,nan,0,0
9222665515,9222664395,4395041,-0.50560784,-0.20973362,0.15811929,nan,0,0
9223665521,9223664395,4395041,-0.50188535,-0.19476148,0.16695437,nan,0,0
9224665553,9224664419,4395041,-0.5056537,-0.24720848,0.17579481,nan,0,0
9225665514,9225664394,4395041,-0.4719649,-0.18728764,0.17145199,nan,0,0
9226665516,9226664395,4395041,-0.49071598,-0.23224725,0.17590164,nan,0,0
9227665552,9227664395,4395041,-0.46827236,-0.20603985,0.16278322,nan,0,0
9228665552,9228664395,4395041,-0.4570442,-0.19105946,0.17160839,nan,0,0
9229665516,9229664395,4395041,-0.4757864,-0.24351272,0.15843183,nan,0,0
9230665516,9230664395,4395041,-0.46460024,-0.23979367,0.18497777,nan,0,0
9231665515,9231664395,4395041,-0.4870809,-0.17984526,0.17616929,nan,0,0
9232665515,9232664395,4395041,-0.4983326,-0.21731795,0.1761961,nan,0,0
9233665516,9233664395,4395041,-0.48340026,-0.20984817,0.15869725,nan,0,0
9234666760,9234665640,4395041,-0.4684111,-0.2285846,0.19396329,nan,0,0
9235665515,9235664394,4395041,-0.423463,-0.2435849,0.24252799,nan,0,0
9236665516,9236664395,4395041,-0.44223058,-0.20987214,0.22499242,nan,0,0
9237665517,9237664396,4395041,-0.46097973,-0.24735498,0.2338513,nan,0,0
9238665549,9238664428,4395041,-0.44600895,-0.22487846,0.23392262,nan,0,0
9239665515,9239664394,4395041,-0.4422812,-0.25112575,0.23399396,nan,0,0
9240665561,9240664441,4395041,-0.40482756,-0.20616218,0.23410112,nan,0,0
9241665515,9241664395,4395041,-0.43858328,-0.23241165,0.22533588,nan,0,0
9242665515,9242664395,4395041,-0.4161109,-0.22117607,0.220985,nan,0,0
9243665515,9243664394,4395041,-0.41237167,-0.21743234,0.21217798,nan,0,0
9244665516,9244664395,4395041,-0.41987896,-0.23243299,0.21663144,nan,0,0
9245665515,9245664394,4395041,-0.31868014,-0.16496383,0.33615384,nan,0,0
9246665516,9246664395,4395041,-0.41991755,-0.27369627,0.23445888,nan,0,0
9247665518,9247664398,4395041,-0.42743573,-0.22496615,0.22125524,nan,0,0
9248665515,9248664395,4395041,-0.45746285,-0.19123447,0.17265831,nan,0,0
9249665534,9249664395,4395041,-0.51372004,-0.23998602,0.16382906,nan,0,0
9250665516,9250664395,4395041,-0.47249418,-0.23624709,0.1638792,nan,0,0
9251665515,9251664395,4395041,-0.49502817,-0.19501111,0.17281689,nan,0,0
9252665517,9252664395,4395041,-0.5025402,-0.22501798,0.17727524,nan,0,0
9253665516,9253664396,4395041,-0.5025518,-0.21002164,0.17286982,nan,0,0
9254665516,9254664396,4395041,-0.49881294,-0.25503218,0.15959658,nan,0,0
9255667233,9255666112,4395041,-0.48384452,-0.19503811,0.1685405,nan,0,0
9256665515,9256664394,4395041,-0.46511233,-0.19879802,0.15971889,nan,0,0
9257665515,9257664395,4395041,-0.41636023,-0.24381456,0.21299118,nan,0,0
9258665516,9258664395,4395041,-0.45390162,-0.26633897,0.22196786,nan,0,0
9259665546,9259664426,4395041,-0.39388156,-0.18756266,0.23528594,nan,0,0
9260665516,9260664395,4395041,-0.43891695,-0.22133419,0.22647673,nan,0,0
9261665515,9261664395,4395041,-0.4314341,-0.21008964,0.21766207,nan,0,0
9262665515,9262664394,4395041,-0.47272357,-0.18008518,0.1910682,nan,0,0
9263665516,9263664395,4395041,-0.5177689,-0.21386108,0.14667878,nan,0,0
9264665515,9264664395,4395041,-0.51779294,-0.19886251,0.16895472,nan,0,0
9265665515,9265664395,4395041,-0.5253216,-0.18011026,0.20903455,nan,0,0
9266665515,9266664395,4395041,-0.5290861,-0.22889543,0.18682551,nan,0,0
9267665515,9267664395,4395041,-0.53659093,-0.25140974,0.1334468,nan,0,0
9268665523,9268664395,4395041,-0.48408005,-0.19513303,0.1601854,nan,0,0
9269665515,9269664395,4395041,-0.3902842,-0.18763666,0.20474428,nan,0,0
9270665535,9270664396,4395041,-0.5028779,-0.21391074,0.17361425,nan,0,0
9271665516,9271664395,4395041,-0.4691353,-0.20641954,0.16924068,nan,0,0
9272665516,9272664396,4395041,-0.52167845,-0.27022192,0.16478698,nan,0,0
9273665515,9273664395,4395041,-0.49541843,-0.18390533,0.15590356,nan,0,0
9274665515,9274664395,4395041,-0.49168813,-0.21769398,0.16486308,nan,0,0
9275665566,9275664429,4395041,-0.476697,-0.18767598,0.16045672,nan,0,0
9276665517,9276664397,4395041,-0.4992414,-0.24774384,0.16942316,nan,0,0
9277665525,9277664405,4395041,-0.48800308,-0.20646283,0.17393523,nan,0,0
9278665527,9278664395,4395041,-0.51056206,-0.25528103,0.16509181,nan,0,0
9279665515,9279664395,4395041,-0.4692776,-0.2177448,0.17850515,nan,0,0
9280665515,9280664395,4395041,-0.47302073,-0.21398558,0.16509181,nan,0,0
9281665515,9281664395,4395041,-0.4692776,-0.24027014,0.16065463,nan,0,0
9282665539,9282664395,4395041,-0.5105979,-0.23277257,0.1696322,nan,0,0
9283665515,9283664395,4395041,-0.50685537,-0.24779595,0.16072899,nan,0,0
9284665515,9284664395,4395041,-0.4543032,-0.23278347,0.19201145,nan,0,0
9285665527,9285664406,4395041,-0.45058033,-0.251574,0.19210035,nan,0,0
9286665515,9286664395,4395041,-0.43558136,-0.25158578,0.19215967,nan,0,0
9287665911,9287664790,4395041,-0.43934664,-0.21779579,0.20112841,nan,0,0
9288665515,9288664394,4395041,-0.45061195,-0.21404068,0.20112841,nan,0,0
9289665538,9289664395,4395041,-0.46190983,-0.22532186,0.21910794,nan,0,0
9290665516,9290664395,4395041,-0.42061064,-0.23283803,0.21019726,nan,0,0
9291665516,9291664395,4395041,-0.43940857,-0.22158208,0.22368324,nan,0,0
9292665515,9292664395,4395041,-0.46948668,-0.24788897,0.21035978,nan,0,0
9293665517,9293664395,4395041,-0.4169139,-0.24789476,0.20143944,nan,0,0
9294665516,9294664395,4395041,-0.47328705,-0.24039978,0.21048996,nan,0,0
9295665553,9295664432,4395041,-0.3756335,-0.18406041,0.286669,nan,0,0
9296665515,9296664395,4395041,-0.47330937,-0.23289825,0.20159534,nan,0,0
9297665525,9297664405,4395041,-0.4357759,-0.2667249,0.21961686,nan,0,0
9298665516,9298664395,4395041,-0.45833766,-0.21414137,0.23313498,nan,0,0
9299665524,9299664395,4395041,-0.42077896,-0.18784775,0.21523489,nan,0,0
9300665516,9300664396,4395041,-0.3832456,-0.2329532,0.26921043,nan,0,0
9301665515,9301664395,4395041,-0.3945268,-0.18786992,0.26925215,nan,0,0
9302665555,9302664434,4395041,-0.47720087,-0.13902701,0.18850574,nan,0,0
9303665515,9303664395,4395041,-0.4020701,-0.16157956,0.2648878,nan,0,0
9304665534,9304664413,4395041,-0.42463621,-0.18789212,0.18862274,nan,0,0
