timestamp,timestamp_sample,device_id,x,y,z,temperature,error_count
1255114382,1255113255,4395041,0.05548604,0.17385626,0.44216722,nan,0
1256114380,1256113254,4395041,0.07028232,0.17015718,0.43778932,nan,0
1257114380,1257113254,4395041,0.059186343,0.1664616,0.43347183,nan,0
1258114380,1258113254,4395041,0.081379525,0.15905997,0.42903358,nan,0
1259114382,1259113254,4395041,0.09247866,0.1664616,0.4247148,nan,0
1260114380,1260113254,4395041,0.07768207,0.15536414,0.4290933,nan,0
1261114380,1261113254,4395041,0.08507682,0.17015363,0.42897382,nan,0
1262114380,1262113254,4395041,0.07768207,0.1923556,0.43347183,nan,0
1263114380,1263113254,4395041,0.092476726,0.19235161,0.42903358,nan,0
1264114380,1264113254,4395041,0.092476726,0.14056464,0.42903358,nan,0
1265114383,1265113255,4395041,0.096175805,0.1553609,0.42465568,nan,0
1266114380,1266113254,4395041,0.062885486,0.17755903,0.41595778,nan,0
1267114380,1267113254,4395041,0.06658463,0.18125817,0.4203363,nan,0
1268114380,1268113254,4395041,0.11097208,0.17755532,0.42027777,nan,0
1269114380,1269113254,4395041,0.09987487,0.2515367,0.41152197,nan,0
1270114380,1270113254,4395041,0.033292316,0.26633853,0.4028223,nan,0
1271114380,1271113254,4395041,0.066583246,0.3255181,0.35023147,nan,0
1272114380,1272113254,4395041,0.09247866,0.35881722,0.32838774,nan,0
1273114380,1273113254,4395041,0.07028232,0.3255181,0.34585357,nan,0
1274114380,1274113254,4395041,0.05178805,0.3255249,0.34590176,nan,0
1275114380,1275113254,4395041,0.040689763,0.26633298,0.38963252,nan,0
1276114380,1276113254,4395041,-0.0036991464,0.2626394,0.4203363,nan,0
1277114380,1277113254,4395041,-0.04438883,0.22934228,0.41589987,nan,0
1278114380,1278113254,4395041,-0.06658463,0.24414366,0.4072008,nan,0
1279114380,1279113254,4395041,-0.13686842,0.2478428,0.3984438,nan,0
1280114380,1280113254,4395041,-0.2219534,0.16276583,0.39849928,nan,0
1281114379,1281113254,4395041,-0.19974974,0.011097208,0.43778932,nan,0
1282114380,1282113254,4395041,-0.17755532,-0.08507859,0.43778932,nan,0
1283114380,1283113254,4395041,-0.16276245,-0.07768207,0.43785033,nan,0
1284114380,1284113254,4395041,-0.21824509,-0.08877766,0.41152197,nan,0
1285114380,1285113254,4395041,-0.26262844,-0.13316372,0.40271014,nan,0
1286114380,1286113254,4395041,-0.28112927,-0.21084696,0.36336517,nan,0
1287114380,1287113255,4395041,-0.25522515,-0.18124685,0.36764067,nan,0
1288114380,1288113254,4395041,-0.25892407,-0.12946203,0.3851474,nan,0
1289114380,1289113254,4395041,-0.24413347,-0.040688913,0.41584197,nan,0
1290114379,1290113254,4395041,-0.24043448,0.09617379,0.40271014,nan,0
1291114380,1291113254,4395041,-0.2885154,0.18864468,0.35451064,nan,0
1292114386,1292113254,4395041,-0.35139695,0.28111756,0.2932372,nan,0
1293114379,1293113254,4395041,-0.31440777,0.38098827,0.21445706,nan,0
1294114380,1294113254,4395041,-0.22933275,0.44756874,0.17506698,nan,0
1295114380,1295113254,4395041,-0.15535116,0.48824653,0.15316232,nan,0
1296114380,1296113254,4395041,-0.088772096,0.50304186,0.13565804,nan,0
1297114380,1297113254,4395041,0.0073978305,0.52524596,0.10066351,nan,0
1298114379,1298113254,4395041,0.10726628,0.45125815,0.17941871,nan,0
1299114380,1299113254,4395041,0.1183628,0.36618492,0.31507674,nan,0
1300114380,1300113254,4395041,0.11466396,0.15165234,0.42010233,nan,0
1301114380,1301113254,4395041,0.15905336,0.11466637,0.42016077,nan,0
1302114380,1302113254,4395041,0.12575524,0.09986445,0.4287351,nan,0
1303114380,1303113254,4395041,0.13685128,0.10356314,0.42436028,nan,0
1304114380,1304113254,4395041,0.15164602,0.15164602,0.4068609,nan,0
1305114380,1305113254,4395041,0.12205655,0.09986445,0.4287351,nan,0
1306114380,1306113254,4395041,0.12205909,0.10356529,0.4244193,nan,0
1307114380,1307113254,4395041,0.13315259,0.16274206,0.41123572,nan,0
1308114380,1308113254,4395041,0.12205655,0.107261814,0.4287351,nan,0
1309114380,1309113254,4395041,0.13685128,0.09986445,0.43310997,nan,0
1310114380,1310113254,4395041,0.1109582,0.09246517,0.437424,nan,0
1311114380,1311113254,4395041,0.12205402,0.114656806,0.43304977,nan,0
1312114379,1312113254,4395041,0.1109582,0.29958716,0.3586877,nan,0
1313114380,1313113254,4395041,0.06657353,0.44752207,0.29740694,nan,0
1314114380,1314113254,4395041,0.044382352,0.45861766,0.27553877,nan,0
1315114380,1315113254,4395041,0.036985297,0.42533088,0.24929701,nan,0
1316114380,1316113254,4395041,0.070272066,0.40683827,0.27116516,nan,0
1317114380,1317113254,4395041,0.02958762,0.33655918,0.34546882,nan,0
1318114380,1318113254,4395041,-0.0036984526,0.32546383,0.36296093,nan,0
1319114380,1319113254,4395041,-0.07396905,0.2736855,0.39357206,nan,0
1320114380,1320113254,4395041,-0.17012528,0.09615776,0.4328691,nan,0
1321114380,1321113254,4395041,-0.11835048,-0.08136596,0.44167534,nan,0
1322114380,1322113254,4395041,-0.1405412,-0.18862107,0.4154372,nan,0
1323114380,1323113254,4395041,-0.18491495,-0.17751834,0.40220627,nan,0
1324114379,1324113254,4395041,-0.19970813,-0.18121664,0.39783445,nan,0
1325114380,1325113254,4395041,-0.19970398,-0.14423065,0.41089275,nan,0
1326114380,1326113254,4395041,-0.19970398,-0.14053242,0.41963515,nan,0
1327114379,1327113254,4395041,-0.19970813,-0.09985407,0.41969347,nan,0
1328114379,1328113254,4395041,-0.21819963,-0.11464726,0.4109499,nan,0
1329114380,1329113254,4395041,-0.21819507,-0.062869765,0.41089275,nan,0
1330114386,1330113261,4395041,-0.24407755,0.09615176,0.4239474,nan,0
1331114380,1331113254,4395041,-0.26257372,0.21079864,0.36718073,nan,0
1332114380,1332113254,4395041,-0.28476307,0.31804705,0.29724154,nan,0
1333114380,1333113254,4395041,-0.23298797,0.4400884,0.21855997,nan,0
1334114380,1334113254,4395041,-0.18490723,0.48075876,0.13111775,nan,0
1335114380,1335113254,4395041,-0.099858224,0.51038647,0.1136986,nan,0
1336114380,1336113254,4395041,-0.0332833,0.5140421,0.09178243,nan,0
1337114380,1337113254,4395041,0.073961355,0.48444688,0.14420947,nan,0
1338114380,1338113254,4395041,0.16271499,0.42897585,0.20538926,nan,0
1339114380,1339113254,4395041,0.17010759,0.32172522,0.3058564,nan,0
1340114380,1340113254,4395041,0.21448348,0.18859755,0.36265835,nan,0
1341114379,1341113254,4395041,0.17010759,0.09984576,0.41946024,nan,0
1342114380,1342113254,4395041,0.16270484,0.12572646,0.41060737,nan,0
1343114380,1343113254,4395041,0.1294243,0.09614377,0.42808002,nan,0
1344114380,1344113254,4395041,0.0998416,0.13312213,0.41934368,nan,0
1345114380,1345113254,4395041,0.13681997,0.14051782,0.42371184,nan,0
1346114379,1346113254,4395041,0.11833079,0.16640268,0.41060737,nan,0
1347114380,1347113254,4395041,0.09983953,0.17379475,0.41928545,nan,0
1348114379,1348113254,4395041,0.07025891,0.17010051,0.42808002,nan,0
1349114380,1349113254,4395041,0.029582698,0.21077673,0.4149755,nan,0
1350114380,1350113254,4395041,0.018488802,0.27733204,0.38871256,nan,0
1351114380,1351113254,4395041,0.018488802,0.43633574,0.3144641,nan,0
1352114380,1352113254,4395041,0.044372205,0.3882568,0.31005347,nan,0
1353114380,1353113254,4395041,0.044372205,0.3882568,0.29695264,nan,0
1354114379,1354113254,4395041,0.018490339,0.3217319,0.35833868,nan,0
1355114380,1355113254,4395041,0.011093282,0.28842533,0.37997743,nan,0
1356114417,1356113292,4395041,0.0073952144,0.22555405,0.41916904,nan,0
1357114380,1357113255,4395041,-0.08134736,0.17008993,0.4366344,nan,0
1358114380,1358113254,4395041,-0.11832588,0.1590004,0.441062,nan,0
1359114380,1359113254,4395041,-0.13311386,0.110928215,0.44536707,nan,0
1360114380,1360113254,4395041,-0.1589971,-0.08874257,0.4366344,nan,0
1361114380,1361113254,4395041,-0.13680862,-0.21075922,0.40164787,nan,0
1362114380,1362113254,4395041,-0.13311107,-0.21445674,0.40164787,nan,0
1363114380,1363113254,4395041,-0.1516019,-0.103533,0.43226805,nan,0
1364114380,1364113254,4395041,-0.18857011,-0.04806689,0.432148,nan,0
1365114380,1365113254,4395041,-0.18117148,0.0,0.43208805,nan,0
1366114380,1366113254,4395041,-0.1663854,0.04436944,0.43651316,nan,0
1367114380,1367113254,4395041,-0.21075048,0.122013435,0.41462994,nan,0
1368114380,1368113254,4395041,-0.24032949,0.22553998,0.3753492,nan,0
1369114380,1369113254,4395041,-0.22554466,0.30688864,0.32301974,nan,0
1370114380,1370113254,4395041,-0.24032949,0.35864556,0.29242322,nan,0
1371114380,1371113254,4395041,-0.2514112,0.3771168,0.2967054,nan,0
1372114380,1372113254,4395041,-0.19597724,0.43632665,0.25328314,nan,0
1373114379,1373113254,4395041,-0.14789507,0.4621721,0.17894556,nan,0
1374114380,1374113254,4395041,-0.059155576,0.4214835,0.2661622,nan,0
1375114380,1375113254,4395041,0.0,0.45475852,0.21816574,nan,0
1376114380,1376113254,4395041,0.09242866,0.47323477,0.1919592,nan,0
1377114379,1377113254,4395041,0.11830869,0.3882004,0.30975237,nan,0
1378114380,1378113254,4395041,0.17006876,0.30316603,0.3664676,nan,0
1379114380,1379113254,4395041,0.1404945,0.15528339,0.4188782,nan,0
1380114380,1380113254,4395041,0.13679443,0.12200584,0.4231828,nan,0
1381114380,1381113254,4395041,0.13309453,0.14048865,0.41876197,nan,0
1382114380,1382113254,4395041,0.09242485,0.17006172,0.42306545,nan,0
1383114380,1383113254,4395041,0.07024288,0.15157674,0.43178844,nan,0
1384114380,1384113254,4395041,0.1072106,0.24029963,0.41864586,nan,0
1385114380,1385113254,4395041,0.06654727,0.19594473,0.42748618,nan,0
1386114380,1386113254,4395041,0.029575339,0.2144212,0.41428497,nan,0
1387114380,1387113254,4395041,0.0036969937,0.31054747,0.34891993,nan,0
1388114380,1388113254,4395041,-0.011090522,0.347503,0.34446287,nan,0
1389114380,1389113254,4395041,0.029575339,0.35490406,0.3270671,nan,0
1390114380,1390113254,4395041,0.022181043,0.3364125,0.3401026,nan,0
1391114380,1391113254,4395041,0.0369707,0.37710115,0.3446062,nan,0
1392114380,1392113254,4395041,0.033272255,0.29205647,0.38375872,nan,0
1393114380,1393113254,4395041,0.0036966878,0.22919464,0.40975356,nan,0
1394114380,1394113254,4395041,-0.022181043,0.18484204,0.42730838,nan,0
1395114380,1395113254,4395041,-0.02587735,0.15896085,0.4403282,nan,0
1396114380,1396113254,4395041,-0.040664405,0.06654175,0.45776695,nan,0
1397114380,1397113254,4395041,-0.107203946,0.05175363,0.4489853,nan,0
1398114380,1398113254,4395041,-0.12938139,0.02957289,0.45764002,nan,0
1399114380,1399113255,4395041,-0.16265088,0.0,0.44456458,nan,0
1400114380,1400113254,4395041,-0.18113396,-0.10350511,0.41841373,nan,0
1401114380,1401113254,4395041,-0.20331782,-0.14047414,0.41411266,nan,0
1402114380,1402113254,4395041,-0.21070684,-0.12938139,0.41841373,nan,0
1403114380,1403113254,4395041,-0.21070684,-0.11829156,0.4271307,nan,0
1404114380,1404113254,4395041,-0.1959204,-0.025876278,0.43584764,nan,0
1405114380,1405113254,4395041,-0.22918515,0.048054952,0.4227136,nan,0
1406114380,1406113254,4395041,-0.26246482,0.16635095,0.38795817,nan,0
1407114380,1407113254,4395041,-0.29571667,0.2402698,0.34422418,nan,0
1408114379,1408113254,4395041,-0.27723438,0.28832373,0.3180806,nan,0
1409114380,1409113254,4395041,-0.2698359,0.32158524,0.30496657,nan,0
1410114380,1410113254,4395041,-0.22917567,0.328978,0.31367987,nan,0
1411114380,1411113254,4395041,-0.21069378,0.35854903,0.29189655,nan,0
1412114380,1412113254,4395041,-0.12197808,0.38441578,0.29621217,nan,0
1413114380,1413113254,4395041,-0.0702298,0.43246773,0.24393943,nan,0
1414114380,1414113254,4395041,-0.029570444,0.45094925,0.23087125,nan,0
1415114379,1415113254,4395041,0.018480765,0.45832297,0.2438719,nan,0
1416114379,1416113254,4395041,0.051747207,0.39919272,0.2918157,nan,0
1417114379,1417113254,4395041,0.11088688,0.35483798,0.31359297,nan,0
1418114380,1418113254,4395041,0.14414997,0.18480766,0.40500155,nan,0
1419114380,1419113254,4395041,0.14414997,0.04065768,0.43984038,nan,0
1420114380,1420113254,4395041,0.11088688,0.1404567,0.4268349,nan,0
1421114380,1421113254,4395041,0.055442292,0.1737192,0.41806608,nan,0
1422114380,1422113254,4395041,0.062834606,0.21068072,0.41806608,nan,0
1423114380,1423113254,4395041,0.03326538,0.17741534,0.4267758,nan,0
1424114380,1424113254,4395041,0.05544115,0.11457838,0.4528422,nan,0
1425114379,1425113254,4395041,0.048049,0.19589207,0.43107095,nan,0
1426114380,1426113254,4395041,0.040656004,0.19219203,0.422304,nan,0
1427114380,1427113254,4395041,0.07761601,0.15153602,0.42665762,nan,0
1428114383,1428113254,4395041,0.092400014,0.10348801,0.4353649,nan,0
1429114379,1429113254,4395041,0.11826713,0.0776128,0.44394928,nan,0
1430114380,1430113254,4395041,0.107181795,0.11826956,0.4396577,nan,0
1431114379,1431113254,4395041,0.040655162,0.22175545,0.42659855,nan,0
1432114380,1432113254,4395041,0.029566782,0.2254467,0.43089193,nan,0
1433114380,1433113254,4395041,0.09609403,0.1367492,0.4396577,nan,0
1434114380,1434113254,4395041,0.08500274,0.13674355,0.43518412,nan,0
1435114379,1435113254,4395041,-0.040654324,0.22175087,0.42218706,nan,0
1436114380,1436113254,4395041,-0.22914255,0.18109652,0.3960724,nan,0
1437114379,1437113254,4395041,-0.28827018,0.02956617,0.40472126,nan,0
1438114379,1438113254,4395041,-0.2439209,-0.12196045,0.40472126,nan,0
1439114380,1439113254,4395041,-0.2476116,-0.09608808,0.4090165,nan,0
1440114380,1440113254,4395041,-0.2402202,-0.12565364,0.400314,nan,0
1441114380,1441113255,4395041,-0.24021526,-0.13304229,0.39590797,nan,0
1442114379,1442113254,4395041,-0.25130212,-0.12565106,0.40025863,nan,0
1443114380,1443113254,4395041,-0.25869334,-0.14043353,0.40025863,nan,0
1444114379,1444113254,4395041,-0.26238897,-0.09978172,0.40025863,nan,0
1445114379,1445113254,4395041,-0.22912839,-0.14043353,0.40895987,nan,0
1446114379,1446113254,4395041,-0.22912839,-0.13673791,0.40025863,nan,0
1447114380,1447113254,4395041,-0.23281442,-0.12564588,0.40449736,nan,0
1448114379,1448113254,4395041,-0.24021032,-0.14043064,0.39585322,nan,0
1449114379,1449113254,4395041,-0.22912368,-0.12934402,0.40890333,nan,0
1450114379,1450113254,4395041,-0.2475963,-0.12195041,0.40449736,nan,0
1451114379,1451113254,4395041,-0.22173259,-0.09977967,0.4002033,nan,0
1452114380,1452113254,4395041,-0.25129175,-0.12195041,0.4001479,nan,0
1453114380,1453113254,4395041,-0.27345893,-0.08868938,0.40009257,nan,0
1454114380,1454113254,4395041,-0.269758,-0.018476576,0.4043855,nan,0
1455114380,1455113254,4395041,-0.29563126,0.022172345,0.39574376,nan,0
1456114379,1456113254,4395041,-0.2808497,0.06651703,0.40444142,nan,0
1457114379,1457113254,4395041,-0.26236737,0.110859446,0.39568904,nan,0
1458114379,1458113254,4395041,-0.26606813,0.14412025,0.40009257,nan,0
1459114379,1459113254,4395041,-0.22910953,0.15520324,0.40003726,nan,0
1460114380,1460113254,4395041,-0.24019548,0.14411728,0.40003726,nan,0
1461114380,1461113254,4395041,-0.25128144,0.13672665,0.40003726,nan,0
1462114380,1462113254,4395041,-0.22541422,0.15520324,0.4043855,nan,0
1463114380,1463113254,4395041,-0.2364904,0.14041618,0.39992666,nan,0
1464114380,1464113254,4395041,-0.25127622,0.13672383,0.39998195,nan,0
1465114380,1465113254,4395041,-0.2254049,0.15150166,0.40427372,nan,0
1466114380,1466113254,4395041,-0.22910006,0.15519683,0.39992666,nan,0
1467114380,1467113254,4395041,-0.2291048,0.14411432,0.39998195,nan,0
1468114380,1468113254,4395041,-0.2291048,0.14411432,0.4043296,nan,0
1469114380,1469113254,4395041,-0.24018556,0.14041618,0.40427372,nan,0
1470114380,1470113254,4395041,-0.24018064,0.1404133,0.39987135,nan,0
1471114379,1471113254,4395041,-0.24018556,0.14411134,0.40427372,nan,0
1472114379,1472113254,4395041,-0.22909538,0.14410838,0.39987135,nan,0
1473114380,1473113254,4395041,-0.23279047,0.14410838,0.39987135,nan,0
1474114379,1474113254,4395041,-0.23279047,0.15149856,0.40421778,nan,0
1475114381,1475113256,4395041,-0.24757081,0.14780347,0.41725707,nan,0
